Debuggging initialized
Autodetecting baud rate
trying baudrate 4800
Querying software version
sending command
assembled Packet: {0xA0, 0xA1, 0x00, 0x02, 0x02, 0x01, 0x03, 0x0D, 0x0A}
response code 2
failed, trying again
response code 2
trying baudrate 9600
Querying software version
sending command
assembled Packet: {0xA0, 0xA1, 0x00, 0x02, 0x02, 0x01, 0x03, 0x0D, 0x0A}
response code 2
failed, trying again
response code 2
trying baudrate 19200
Querying software version
sending command
assembled Packet: {0xA0, 0xA1, 0x00, 0x02, 0x02, 0x01, 0x03, 0x0D, 0x0A}
response code 2
failed, trying again
response code 0
Resetting receiver
sending command
assembled Packet: {0xA0, 0xA1, 0x00, 0x02, 0x04, 0x01, 0x05, 0x0D, 0x0A}
response code 0
Setting baud rate
sending command
assembled Packet: {0xA0, 0xA1, 0x00, 0x04, 0x05, 0x00, 0x05, 0x00, 0x00, 0x0D, 0x0A}
response code 0
Resetting receiver
sending command
assembled Packet: {0xA0, 0xA1, 0x00, 0x02, 0x04, 0x01, 0x05, 0x0D, 0x0A}
response code 2
failed, trying again
response code 0
NORMAL
Setting baud rate
sending command
assembled Packet: {0xA0, 0xA1, 0x00, 0x04, 0x05, 0x00, 0x02, 0x01, 0x06, 0x0D, 0x0A}
response code 0
NORMAL
exiting setup
$GPGGA,115945.000000,0000.0000,N,00000.0000,E,0,00,0.0,0.0,M,0.0,M,,0000*50
$GPGLL,0000.0000,N,00000.0000,E,115945.000000,V,N*7C
$GPGSA,A,1,,,,,,,,,,,,,0.0,0.0,0.0*30
$GPRMC,115945.000000,V,0000.0000,N,00000.0000,E,0.000,000.0,280606,,,N*41
$GPVTG,000.0,T,,M,0.000,N,0.000,K,N*02
$GPZDA,115945.000000,28,06,2006,00,00*63
$GPGGA,115946.000000,0000.0000,N,00000.0000,E,0,00,0.0,0.0,M,0.0,M,,0000*53
$GPGLL,0000.0000,N,00000.0000,E,115946.000000,V,N*7F
$GPGSA,A,1,,,,,,,,,,,,,0.0,0.0,0.0*30
$GPRMC,115946.000000,V,0000.0000,N,00000.0000,E,0.000,000.0,280606,,,N*42
$GPVTG,000.0,T,,M,0.000,N,0.000,K,N*02
$GPZDA,115946.000000,28,06,2006,00,00*60
$GPGGA,115947.000000,0000.0000,N,00000.0000,E,0,00,0.0,0.0,M,0.0,M,,0000*52
$GPGLL,0000.0000,N,00000.0000,E,115947.000000,V,N*7E
$GPGSA,A,1,,,,,,,,,,,,,0.0,0.0,0.0*30
$GPRMC,115947.000000,V,0000.0000,N,00000.0000,E,0.000,000.0,280606,,,N*43
$GPVTG,000.0,T,,M,0.000,N,0.000,K,N*02
$GPZDA,115947.000000,28,06,2006,00,00*61
$GPGGA,115948.000000,0000.0000,N,00000.0000,E,0,00,0.0,0.0,M,0.0,M,,0000*5D
$GPGLL,0000.0000,N,00000.0000,E,115948.000000,V,N*71
$GPGSA,A,1,,,,,,,,,,,,,0.0,0.0,0.0*30
$GPRMC,115948.000000,V,0000.0000,N,00000.0000,E,0.000,000.0,280606,,,N*4C
$GPVTG,000.0,T,,M,0.000,N,0.000,K,N*02
$GPZDA,115948.000000,28,06,2006,00,00*6E
$GPGGA,115949.000000,0000.0000,N,00000.0000,E,0,00,0.0,0.0,M,0.0,M,,0000*5C
$GPGLL,0000.0000,N,00000.0000,E,115949.000000,V,N*70
$GPGSA,A,1,,,,,,,,,,,,,0.0,0.0,0.0*30
$GPRMC,115949.000000,V,0000.0000,N,00000.0000,E,0.000,000.0,280606,,,N*4D
$GPVTG,000.0,T,,M,0.000,N,0.000,K,N*02
$GPZDA,115949.000000,28,06,2006,00,00*6F
$GPGGA,115950.000000,0000.0000,N,00000.0000,E,0,00,0.0,0.0,M,0.0,M,,0000*54
$GPGLL,0000.0000,N,00000.0000,E,115950.000000,V,N*78
$GPGSA,A,1,,,,,,,,,,,,,0.0,0.0,0.0*30
$GPRMC,115950.000000,V,0000.0000,N,00000.0000,E,0.000,000.0,280606,,,N*45
$GPVTG,000.0,T,,M,0.000,N,0.000,K,N*02
$GPZDA,115950.000000,28,06,2006,00,00*67
$GPGGA,115951.000000,0000.0000,N,00000.0000,E,0,00,0.0,0.0,M,0.0,M,,0000*55
$GPGLL,0000.0000,N,00000.0000,E,115951.000000,V,N*79
$GPGSA,A,1,,,,,,,,,,,,,0.0,0.0,0.0*30
$GPGSV,1,1,02,01,00,000,41,13,00,000,37*79
$GPRMC,115951.000000,V,0000.0000,N,00000.0000,E,0.000,000.0,280606,,,N*44
$GPVTG,000.0,T,,M,0.000,N,0.000,K,N*02
$GPZDA,115951.000000,28,06,2006,00,00*66
$GPGGA,115952.000000,0000.0000,N,00000.0000,E,0,00,0.0,0.0,M,0.0,M,,0000*56
$GPGLL,0000.0000,N,00000.0000,E,115952.000000,V,N*7A
$GPGSA,A,1,,,,,,,,,,,,,0.0,0.0,0.0*30
$GPRMC,115952.000000,V,0000.0000,N,00000.0000,E,0.000,000.0,280606,,,N*47
$GPVTG,000.0,T,,M,0.000,N,0.000,K,N*02
$GPZDA,115952.000000,28,06,2006,00,00*65
$GPGGA,115953.000000,0000.0000,N,00000.0000,E,0,00,0.0,0.0,M,0.0,M,,0000*57
$GPGLL,0000.0000,N,00000.0000,E,115953.000000,V,N*7B
$GPGSA,A,1,,,,,,,,,,,,,0.0,0.0,0.0*30
$GPRMC,115953.000000,V,0000.0000,N,00000.0000,E,0.000,000.0,280606,,,N*46
$GPVTG,000.0,T,,M,0.000,N,0.000,K,N*02
$GPZDA,115953.000000,28,06,2006,00,00*64
$GPGGA,115954.000000,0000.0000,N,00000.0000,E,0,00,0.0,0.0,M,0.0,M,,0000*50
$GPGLL,0000.0000,N,00000.0000,E,115954.000000,V,N*7C
$GPGSA,A,1,,,,,,,,,,,,,0.0,0.0,0.0*30
$GPGSV,1,1,03,01,00,000,45,13,00,000,36,28,00,000,40*43
$GPRMC,115954.000000,V,0000.0000,N,00000.0000,E,0.000,000.0,280606,,,N*41
$GPVTG,000.0,T,,M,0.000,N,0.000,K,N*02
$GPZDA,115954.000000,28,06,2006,00,00*63
$GPGGA,115955.000000,0000.0000,N,00000.0000,E,0,00,0.0,0.0,M,0.0,M,,0000*51
$GPGLL,0000.0000,N,00000.0000,E,115955.000000,V,N*7D
$GPGSA,A,1,,,,,,,,,,,,,0.0,0.0,0.0*30
$GPRMC,115955.000000,V,0000.0000,N,00000.0000,E,0.000,000.0,280606,,,N*40
$GPVTG,000.0,T,,M,0.000,N,0.000,K,N*02
$GPZDA,115955.000000,28,06,2006,00,00*62
$GPGGA,115956.000000,0000.0000,N,00000.0000,E,0,00,0.0,0.0,M,0.0,M,,0000*52
$GPGLL,0000.0000,N,00000.0000,E,115956.000000,V,N*7E
$GPGSA,A,1,,,,,,,,,,,,,0.0,0.0,0.0*30
$GPRMC,115956.000000,V,0000.0000,N,00000.0000,E,0.000,000.0,280606,,,N*43
$GPVTG,000.0,T,,M,0.000,N,0.000,K,N*02
$GPZDA,115956.000000,28,06,2006,00,00*61
$GPGGA,115957.000000,0000.0000,N,00000.0000,E,0,00,0.0,0.0,M,0.0,M,,0000*53
$GPGLL,0000.0000,N,00000.0000,E,115957.000000,V,N*7F
$GPGSA,A,1,,,,,,,,,,,,,0.0,0.0,0.0*30
$GPGSV,1,1,04,01,00,000,46,13,00,000,51,28,00,000,46,07,00,000,42*71
$GPRMC,115957.000000,V,0000.0000,N,00000.0000,E,0.000,000.0,280606,,,N*42
$GPVTG,000.0,T,,M,0.000,N,0.000,K,N*02
$GPZDA,115957.000000,28,06,2006,00,00*60
$GPGGA,115958.000000,0000.0000,N,00000.0000,E,0,00,0.0,0.0,M,0.0,M,,0000*5C
$GPGLL,0000.0000,N,00000.0000,E,115958.000000,V,N*70
$GPGSA,A,1,,,,,,,,,,,,,0.0,0.0,0.0*30
$GPRMC,115958.000000,V,0000.0000,N,00000.0000,E,0.000,000.0,280606,,,N*4D
$GPVTG,000.0,T,,M,0.000,N,0.000,K,N*02
$GPZDA,115958.000000,28,06,2006,00,00*6F
$GPGGA,115959.000000,0000.0000,N,00000.0000,E,0,00,0.0,0.0,M,0.0,M,,0000*5D
$GPGLL,0000.0000,N,00000.0000,E,115959.000000,V,N*71
$GPGSA,A,1,,,,,,,,,,,,,0.0,0.0,0.0*30
$GPRMC,115959.000000,V,0000.0000,N,00000.0000,E,0.000,000.0,280606,,,N*4C
$GPVTG,000.0,T,,M,0.000,N,0.000,K,N*02
$GPZDA,115959.000000,28,06,2006,00,00*6E
$GPGGA,120000.000000,0000.0000,N,00000.0000,E,0,00,0.0,0.0,M,0.0,M,,0000*5E
$GPGLL,0000.0000,N,00000.0000,E,120000.000000,V,N*72
$GPGSA,A,1,,,,,,,,,,,,,0.0,0.0,0.0*30
$GPGSV,2,1,06,01,00,000,47,13,00,000,51,28,00,000,45,07,00,000,44*74
$GPGSV,2,2,06,11,00,000,46,17,00,000,40*7F
$GPRMC,120000.000000,V,0000.0000,N,00000.0000,E,0.000,000.0,280606,,,N*4F
$GPVTG,000.0,T,,M,0.000,N,0.000,K,N*02
$GPZDA,120000.000000,28,06,2006,00,00*6D
$GPGGA,120001.000000,0000.0000,N,00000.0000,E,0,00,0.0,0.0,M,0.0,M,,0000*5F
$GPGLL,0000.0000,N,00000.0000,E,120001.000000,V,N*73
$GPGSA,A,1,,,,,,,,,,,,,0.0,0.0,0.0*30
$GPRMC,120001.000000,V,0000.0000,N,00000.0000,E,0.000,000.0,280606,,,N*4E
$GPVTG,000.0,T,,M,0.000,N,0.000,K,N*02
$GPZDA,120001.000000,28,06,2006,00,00*6C
$GPGGA,120002.000000,0000.0000,N,00000.0000,E,0,00,0.0,0.0,M,0.0,M,,0000*5C
$GPGLL,0000.0000,N,00000.0000,E,120002.000000,V,N*70
$GPGSA,A,1,,,,,,,,,,,,,0.0,0.0,0.0*30
$GPRMC,120002.000000,V,0000.0000,N,00000.0000,E,0.000,000.0,280606,,,N*4D
$GPVTG,000.0,T,,M,0.000,N,0.000,K,N*02
$GPZDA,120002.000000,28,06,2006,00,00*6F
$GPGGA,120003.000000,0000.0000,N,00000.0000,E,0,00,0.0,0.0,M,0.0,M,,0000*5D
$GPGLL,0000.0000,N,00000.0000,E,120003.000000,V,N*71
$GPGSA,A,1,,,,,,,,,,,,,0.0,0.0,0.0*30
$GPGSV,2,1,07,01,00,000,47,13,00,000,51,28,00,000,45,07,00,000,45*74
$GPGSV,2,2,07,19,00,000,37,11,00,000,46,17,00,000,42*40
$GPRMC,120003.000000,V,0000.0000,N,00000.0000,E,0.000,000.0,280606,,,N*4C
$GPVTG,000.0,T,,M,0.000,N,0.000,K,N*02
$GPZDA,120003.000000,28,06,2006,00,00*6E
$GPGGA,120004.000000,0000.0000,N,00000.0000,E,0,00,0.0,0.0,M,0.0,M,,0000*5A
$GPGLL,0000.0000,N,00000.0000,E,120004.000000,V,N*76
$GPGSA,A,1,,,,,,,,,,,,,0.0,0.0,0.0*30
$GPRMC,120004.000000,V,0000.0000,N,00000.0000,E,0.000,000.0,280606,,,N*4B
$GPVTG,000.0,T,,M,0.000,N,0.000,K,N*02
$GPZDA,120004.000000,28,06,2006,00,00*69
$GPGGA,120005.000000,0000.0000,N,00000.0000,E,0,00,0.0,0.0,M,0.0,M,,0000*5B
$GPGLL,0000.0000,N,00000.0000,E,120005.000000,V,N*77
$GPGSA,A,1,,,,,,,,,,,,,0.0,0.0,0.0*30
$GPRMC,120005.000000,V,0000.0000,N,00000.0000,E,0.000,000.0,280606,,,N*4A
$GPVTG,000.0,T,,M,0.000,N,0.000,K,N*02
$GPZDA,120005.000000,28,06,2006,00,00*68
$GPGGA,120006.000000,0000.0000,N,00000.0000,E,0,00,0.0,0.0,M,0.0,M,,0000*58
$GPGLL,0000.0000,N,00000.0000,E,120006.000000,V,N*74
$GPGSA,A,1,,,,,,,,,,,,,0.0,0.0,0.0*30
$GPGSV,2,1,07,01,00,000,47,13,00,000,51,28,00,000,45,07,00,000,44*75
$GPGSV,2,2,07,19,00,000,38,11,00,000,46,17,00,000,42*4F
$GPRMC,120006.000000,V,0000.0000,N,00000.0000,E,0.000,000.0,280606,,,N*49
$GPVTG,000.0,T,,M,0.000,N,0.000,K,N*02
$GPZDA,120006.000000,28,06,2006,00,00*6B
$GPGGA,120007.000000,0000.0000,N,00000.0000,E,0,00,0.0,0.0,M,0.0,M,,0000*59
$GPGLL,0000.0000,N,00000.0000,E,120007.000000,V,N*75
$GPGSA,A,1,,,,,,,,,,,,,0.0,0.0,0.0*30
$GPRMC,120007.000000,V,0000.0000,N,00000.0000,E,0.000,000.0,280606,,,N*48
$GPVTG,000.0,T,,M,0.000,N,0.000,K,N*02
$GPZDA,120007.000000,28,06,2006,00,00*6A
$GPGGA,120008.000000,0000.0000,N,00000.0000,E,0,00,0.0,0.0,M,0.0,M,,0000*56
$GPGLL,0000.0000,N,00000.0000,E,120008.000000,V,N*7A
$GPGSA,A,1,,,,,,,,,,,,,0.0,0.0,0.0*30
$GPRMC,120008.000000,V,0000.0000,N,00000.0000,E,0.000,000.0,280606,,,N*47
$GPVTG,000.0,T,,M,0.000,N,0.000,K,N*02
$GPZDA,120008.000000,28,06,2006,00,00*65
$GPGGA,120009.000000,0000.0000,N,00000.0000,E,0,00,0.0,0.0,M,0.0,M,,0000*57
$GPGLL,0000.0000,N,00000.0000,E,120009.000000,V,N*7B
$GPGSA,A,1,,,,,,,,,,,,,0.0,0.0,0.0*30
$GPGSV,2,1,07,01,00,000,48,13,00,000,51,28,00,000,46,07,00,000,44*79
$GPGSV,2,2,07,19,00,000,38,11,00,000,46,17,00,000,43*4E
$GPRMC,120009.000000,V,0000.0000,N,00000.0000,E,0.000,000.0,280606,,,N*46
$GPVTG,000.0,T,,M,0.000,N,0.000,K,N*02
$GPZDA,120009.000000,28,06,2006,00,00*64
$GPGGA,120010.000000,0000.0000,N,00000.0000,E,0,00,0.0,0.0,M,0.0,M,,0000*5F
$GPGLL,0000.0000,N,00000.0000,E,120010.000000,V,N*73
$GPGSA,A,1,,,,,,,,,,,,,0.0,0.0,0.0*30
$GPRMC,120010.000000,V,0000.0000,N,00000.0000,E,0.000,000.0,280606,,,N*4E
$GPVTG,000.0,T,,M,0.000,N,0.000,K,N*02
$GPZDA,120010.000000,28,06,2006,00,00*6C
$GPGGA,120011.000000,0000.0000,N,00000.0000,E,0,00,0.0,0.0,M,0.0,M,,0000*5E
$GPGLL,0000.0000,N,00000.0000,E,120011.000000,V,N*72
$GPGSA,A,1,,,,,,,,,,,,,0.0,0.0,0.0*30
$GPRMC,120011.000000,V,0000.0000,N,00000.0000,E,0.000,000.0,280606,,,N*4F
$GPVTG,000.0,T,,M,0.000,N,0.000,K,N*02
$GPZDA,120011.000000,28,06,2006,00,00*6D
$GPGGA,120012.000000,0000.0000,N,00000.0000,E,0,00,0.0,0.0,M,0.0,M,,0000*5D
$GPGLL,0000.0000,N,00000.0000,E,120012.000000,V,N*71
$GPGSA,A,1,,,,,,,,,,,,,0.0,0.0,0.0*30
$GPGSV,2,1,07,01,00,000,47,13,00,000,51,28,00,000,45,07,00,000,44*75
$GPGSV,2,2,07,19,00,000,39,11,00,000,47,17,00,000,42*4F
$GPRMC,120012.000000,V,0000.0000,N,00000.0000,E,0.000,000.0,280606,,,N*4C
$GPVTG,000.0,T,,M,0.000,N,0.000,K,N*02
$GPZDA,120012.000000,28,06,2006,00,00*6E
$GPGGA,120013.000000,0000.0000,N,00000.0000,E,0,00,0.0,0.0,M,0.0,M,,0000*5C
$GPGLL,0000.0000,N,00000.0000,E,120013.000000,V,N*70
$GPGSA,A,1,,,,,,,,,,,,,0.0,0.0,0.0*30
$GPRMC,120013.000000,V,0000.0000,N,00000.0000,E,0.000,000.0,280606,,,N*4D
$GPVTG,000.0,T,,M,0.000,N,0.000,K,N*02
$GPZDA,120013.000000,28,06,2006,00,00*6F
$GPGGA,120014.000000,0000.0000,N,00000.0000,E,0,00,0.0,0.0,M,0.0,M,,0000*5B
$GPGLL,0000.0000,N,00000.0000,E,120014.000000,V,N*77
$GPGSA,A,1,,,,,,,,,,,,,0.0,0.0,0.0*30
$GPRMC,120014.000000,V,0000.0000,N,00000.0000,E,0.000,000.0,280606,,,N*4A
$GPVTG,000.0,T,,M,0.000,N,0.000,K,N*02
$GPZDA,120014.000000,28,06,2006,00,00*68
$GPGGA,120015.000000,0000.0000,N,00000.0000,E,0,00,0.0,0.0,M,0.0,M,,0000*5A
$GPGLL,0000.0000,N,00000.0000,E,120015.000000,V,N*76
$GPGSA,A,1,,,,,,,,,,,,,0.0,0.0,0.0*30
$GPGSV,2,1,07,01,00,000,47,13,00,000,51,28,00,000,45,07,00,000,44*75
$GPGSV,2,2,07,19,00,000,39,11,00,000,47,17,00,000,42*4F
$GPRMC,120015.000000,V,0000.0000,N,00000.0000,E,0.000,000.0,280606,,,N*4B
$GPVTG,000.0,T,,M,0.000,N,0.000,K,N*02
$GPZDA,120015.000000,28,06,2006,00,00*69
$GPGGA,120016.000000,0000.0000,N,00000.0000,E,0,00,0.0,0.0,M,0.0,M,,0000*59
$GPGLL,0000.0000,N,00000.0000,E,120016.000000,V,N*75
$GPGSA,A,1,,,,,,,,,,,,,0.0,0.0,0.0*30
$GPRMC,120016.000000,V,0000.0000,N,00000.0000,E,0.000,000.0,280606,,,N*48
$GPVTG,000.0,T,,M,0.000,N,0.000,K,N*02
$GPZDA,120016.000000,28,06,2006,00,00*6A
$GPGGA,120017.000000,0000.0000,N,00000.0000,E,0,00,0.0,0.0,M,0.0,M,,0000*58
$GPGLL,0000.0000,N,00000.0000,E,120017.000000,V,N*74
$GPGSA,A,1,,,,,,,,,,,,,0.0,0.0,0.0*30
$GPRMC,120017.000000,V,0000.0000,N,00000.0000,E,0.000,000.0,280606,,,N*49
$GPVTG,000.0,T,,M,0.000,N,0.000,K,N*02
$GPZDA,120017.000000,28,06,2006,00,00*6B
$GPGGA,120018.000000,0000.0000,N,00000.0000,E,0,00,0.0,0.0,M,0.0,M,,0000*57
$GPGLL,0000.0000,N,00000.0000,E,120018.000000,V,N*7B
$GPGSA,A,1,,,,,,,,,,,,,0.0,0.0,0.0*30
$GPGSV,2,1,08,01,00,000,46,13,00,000,51,28,00,000,45,07,00,000,43*7C
$GPGSV,2,2,08,19,00,000,39,11,00,000,47,17,00,000,41,15,00,000,37*73
$GPRMC,120018.000000,V,0000.0000,N,00000.0000,E,0.000,000.0,280606,,,N*46
$GPVTG,000.0,T,,M,0.000,N,0.000,K,N*02
$GPZDA,120018.000000,28,06,2006,00,00*64
$GPGGA,120019.000000,0000.0000,N,00000.0000,E,0,00,0.0,0.0,M,0.0,M,,0000*56
$GPGLL,0000.0000,N,00000.0000,E,120019.000000,V,N*7A
$GPGSA,A,1,,,,,,,,,,,,,0.0,0.0,0.0*30
$GPRMC,120019.000000,V,0000.0000,N,00000.0000,E,0.000,000.0,280606,,,N*47
$GPVTG,000.0,T,,M,0.000,N,0.000,K,N*02
$GPZDA,120019.000000,28,06,2006,00,00*65
$GPGGA,120020.000000,0000.0000,N,00000.0000,E,0,00,0.0,0.0,M,0.0,M,,0000*5C
$GPGLL,0000.0000,N,00000.0000,E,120020.000000,V,N*70
$GPGSA,A,1,,,,,,,,,,,,,0.0,0.0,0.0*30
$GPRMC,120020.000000,V,0000.0000,N,00000.0000,E,0.000,000.0,280606,,,N*4D
$GPVTG,000.0,T,,M,0.000,N,0.000,K,N*02
$GPZDA,120020.000000,28,06,2006,00,00*6F
$GPGGA,120021.000000,0000.0000,N,00000.0000,E,0,00,0.0,0.0,M,0.0,M,,0000*5D
$GPGLL,0000.0000,N,00000.0000,E,120021.000000,V,N*71
$GPGSA,A,1,,,,,,,,,,,,,0.0,0.0,0.0*30
$GPGSV,2,1,08,01,00,000,46,13,00,000,51,28,00,000,45,07,00,000,43*7C
$GPGSV,2,2,08,19,00,000,38,11,00,000,47,17,00,000,41,15,00,000,39*7C
$GPRMC,120021.000000,V,0000.0000,N,00000.0000,E,0.000,000.0,280606,,,N*4C
$GPVTG,000.0,T,,M,0.000,N,0.000,K,N*02
$GPZDA,120021.000000,28,06,2006,00,00*6E
$GPGGA,120022.000000,0000.0000,N,00000.0000,E,0,00,0.0,0.0,M,0.0,M,,0000*5E
$GPGLL,0000.0000,N,00000.0000,E,120022.000000,V,N*72
$GPGSA,A,1,,,,,,,,,,,,,0.0,0.0,0.0*30
$GPRMC,120022.000000,V,0000.0000,N,00000.0000,E,0.000,000.0,280606,,,N*4F
$GPVTG,000.0,T,,M,0.000,N,0.000,K,N*02
$GPZDA,120022.000000,28,06,2006,00,00*6D
$GPGGA,120023.000000,0000.0000,N,00000.0000,E,0,00,0.0,0.0,M,0.0,M,,0000*5F
$GPGLL,0000.0000,N,00000.0000,E,120023.000000,V,N*73
$GPGSA,A,1,,,,,,,,,,,,,0.0,0.0,0.0*30
$GPRMC,120023.000000,V,0000.0000,N,00000.0000,E,0.000,000.0,280606,,,N*4E
$GPVTG,000.0,T,,M,0.000,N,0.000,K,N*02
$GPZDA,120023.000000,28,06,2006,00,00*6C
$GPGGA,165019.000000,0000.0000,N,00000.0000,E,0,00,0.0,0.0,M,0.0,M,,0000*57
$GPGLL,0000.0000,N,00000.0000,E,165019.000000,V,N*7B
$GPGSA,A,1,,,,,,,,,,,,,0.0,0.0,0.0*30
$GPGSV,3,1,09,01,00,000,46,13,00,000,51,28,00,000,45,07,00,000,43*7C
$GPGSV,3,2,09,19,00,000,39,11,00,000,46,17,00,000,41,15,00,000,39*7C
$GPGSV,3,3,09,30,00,000,36*46
$GPRMC,165019.000000,V,0000.0000,N,00000.0000,E,0.000,000.0,070717,,,N*4A
$GPVTG,000.0,T,,M,0.000,N,0.000,K,N*02
$GPZDA,165019.000000,07,07,2017,00,00*68
$GPGGA,165020.000000,0000.0000,N,00000.0000,E,0,00,0.0,0.0,M,0.0,M,,0000*5D
$GPGLL,0000.0000,N,00000.0000,E,165020.000000,V,N*71
$GPGSA,A,1,,,,,,,,,,,,,0.0,0.0,0.0*30
$GPRMC,165020.000000,V,0000.0000,N,00000.0000,E,0.000,000.0,070717,,,N*40
$GPVTG,000.0,T,,M,0.000,N,0.000,K,N*02
$GPZDA,165020.000000,07,07,2017,00,00*62
$GPGGA,165021.000000,0000.0000,N,00000.0000,E,0,00,0.0,0.0,M,0.0,M,,0000*5C
$GPGLL,0000.0000,N,00000.0000,E,165021.000000,V,N*70
$GPGSA,A,1,,,,,,,,,,,,,0.0,0.0,0.0*30
$GPRMC,165021.000000,V,0000.0000,N,00000.0000,E,0.000,000.0,070717,,,N*41
$GPVTG,000.0,T,,M,0.000,N,0.000,K,N*02
$GPZDA,165021.000000,07,07,2017,00,00*63
$GPGGA,165022.000000,0000.0000,N,00000.0000,E,0,00,0.0,0.0,M,0.0,M,,0000*5F
$GPGLL,0000.0000,N,00000.0000,E,165022.000000,V,N*73
$GPGSA,A,1,,,,,,,,,,,,,0.0,0.0,0.0*30
$GPGSV,3,1,09,01,00,000,46,13,00,000,51,28,00,000,45,07,00,000,43*7C
$GPGSV,3,2,09,19,00,000,40,11,00,000,46,17,00,000,41,15,00,000,39*72
$GPGSV,3,3,09,30,00,000,37*47
$GPRMC,165022.000000,V,0000.0000,N,00000.0000,E,0.000,000.0,070717,,,N*42
$GPVTG,000.0,T,,M,0.000,N,0.000,K,N*02
$GPZDA,165022.000000,07,07,2017,00,00*60
$GPGGA,165023.000000,0000.0000,N,00000.0000,E,0,00,0.0,0.0,M,0.0,M,,0000*5E
$GPGLL,0000.0000,N,00000.0000,E,165023.000000,V,N*72
$GPGSA,A,1,,,,,,,,,,,,,0.0,0.0,0.0*30
$GPRMC,165023.000000,V,0000.0000,N,00000.0000,E,0.000,000.0,070717,,,N*43
$GPVTG,000.0,T,,M,0.000,N,0.000,K,N*02
$GPZDA,165023.000000,07,07,2017,00,00*61
$GPGGA,165023.837606,3725.0687,N,12203.3837,W,1,04,2.1,28.5,M,-32.0,M,,0000*62
$GPGLL,3725.0687,N,12203.3837,W,165023.837606,A,A*73
$GPGSA,A,3,13,28,07,11,,,,,,,,,4.4,2.1,3.9*34
$GPRMC,165023.837606,A,3725.0687,N,12203.3837,W,0.000,000.0,070717,,,A*42
$GPVTG,000.0,T,,M,0.000,N,0.000,K,A*0D
$GPZDA,165023.837606,07,07,2017,00,00*6D
$GPGGA,165024.837606,3725.0693,N,12203.3857,W,1,05,2.1,22.5,M,-32.0,M,,0000*6D
$GPGLL,3725.0693,N,12203.3857,W,165024.837606,A,A*77
$GPGSA,A,3,01,13,28,07,11,,,,,,,,4.4,2.1,3.8*34
$GPGSV,3,1,09,17,69,177,41,28,59,030,46,30,54,111,36,13,52,272,50*79
$GPGSV,3,2,09,11,22,055,46,01,21,073,46,07,19,122,40,19,00,000,40*71
$GPGSV,3,3,09,15,00,000,38*4F
$GPRMC,165024.837606,A,3725.0693,N,12203.3857,W,0.000,000.0,070717,,,A*46
$GPVTG,000.0,T,,M,0.000,N,0.000,K,A*0D
$GPZDA,165024.837606,07,07,2017,00,00*6A
$GPGGA,165025.837608,3725.0731,N,12203.3893,W,1,06,1.7,5.8,M,-32.0,M,,0000*5D
$GPGLL,3725.0731,N,12203.3893,W,165025.837608,A,A*79
$GPGSA,A,3,01,13,28,07,11,17,,,,,,,3.1,1.7,2.7*3B
$GPRMC,165025.837608,A,3725.0731,N,12203.3893,W,0.000,000.0,070717,,,A*48
$GPVTG,000.0,T,,M,0.000,N,0.000,K,A*0D
$GPZDA,165025.837608,07,07,2017,00,00*65
$GPGGA,165026.837608,3725.0732,N,12203.3881,W,1,06,1.7,12.7,M,-32.0,M,,0000*67
$GPGLL,3725.0732,N,12203.3881,W,165026.837608,A,A*7A
$GPGSA,A,3,01,13,28,07,11,17,,,,,,,3.1,1.7,2.7*3B
$GPRMC,165026.837608,A,3725.0732,N,12203.3881,W,0.000,000.0,070717,,,A*4B
$GPVTG,000.0,T,,M,0.000,N,0.000,K,A*0D
$GPZDA,165026.837608,07,07,2017,00,00*66
$GPGGA,165027.837610,3725.0658,N,12203.3810,W,1,07,1.5,27.5,M,-32.0,M,,0000*6D
$GPGLL,3725.0658,N,12203.3810,W,165027.837610,A,A*77
$GPGSA,A,3,01,13,28,07,19,11,17,,,,,,3.0,1.5,2.6*31
$GPGSV,3,1,09,17,69,177,33,28,59,030,43,30,54,111,37,13,52,272,43*7A
$GPGSV,3,2,09,19,43,197,31,11,22,055,44,01,21,073,43,07,19,122,48*70
$GPGSV,3,3,09,15,00,000,33*44
$GPRMC,165027.837610,A,3725.0658,N,12203.3810,W,0.901,258.4,070717,,,A*45
$GPVTG,258.4,T,,M,0.901,N,1.669,K,A*06
$GPZDA,165027.837610,07,07,2017,00,00*6E
$GPGGA,165028.837610,3725.0607,N,12203.3802,W,1,07,1.5,31.1,M,-32.0,M,,0000*68
$GPGLL,3725.0607,N,12203.3802,W,165028.837610,A,A*71
$GPGSA,A,3,01,13,28,07,19,11,17,,,,,,3.0,1.5,2.6*31
$GPRMC,165028.837610,A,3725.0607,N,12203.3802,W,0.000,258.4,070717,,,A*4B
$GPVTG,258.4,T,,M,0.000,N,0.000,K,A*06
$GPZDA,165028.837610,07,07,2017,00,00*61
$GPGGA,165029.837612,3725.0640,N,12203.3845,W,1,07,1.5,7.7,M,-32.0,M,,0000*58
$GPGLL,3725.0640,N,12203.3845,W,165029.837612,A,A*72
$GPGSA,A,3,01,13,28,07,19,11,17,,,,,,3.0,1.5,2.6*31
$GPRMC,165029.837612,A,3725.0640,N,12203.3845,W,0.000,258.4,070717,,,A*48
$GPVTG,258.4,T,,M,0.000,N,0.000,K,A*06
$GPZDA,165029.837612,07,07,2017,00,00*62
$GPGGA,165030.837612,3725.0640,N,12203.3806,W,1,07,1.5,17.5,M,-32.0,M,,0000*64
$GPGLL,3725.0640,N,12203.3806,W,165030.837612,A,A*7D
$GPGSA,A,3,01,13,28,07,19,11,17,,,,,,3.0,1.5,2.6*31
$GPGSV,3,1,09,17,69,177,34,28,59,030,45,30,54,111,42,13,52,272,40*7A
$GPGSV,3,2,09,19,43,197,33,11,22,055,45,01,21,073,43,07,19,122,47*7C
$GPGSV,3,3,09,15,00,000,33*44
$GPRMC,165030.837612,A,3725.0640,N,12203.3806,W,0.000,258.4,070717,,,A*47
$GPVTG,258.4,T,,M,0.000,N,0.000,K,A*06
$GPZDA,165030.837612,07,07,2017,00,00*6A
$GPGGA,165031.997618,3725.0644,N,12203.3804,W,1,07,1.5,17.9,M,-32.0,M,,0000*6E
$GPGLL,3725.0644,N,12203.3804,W,165031.997618,A,A*7B
$GPGSA,A,3,01,13,28,07,19,11,17,,,,,,3.0,1.5,2.6*31
$GPRMC,165031.997618,A,3725.0644,N,12203.3804,W,0.000,258.4,070717,,,A*41
$GPVTG,258.4,T,,M,0.000,N,0.000,K,A*06
$GPZDA,165031.997618,07,07,2017,00,00*6A
$GPGGA,165032.997620,3725.0643,N,12203.3804,W,1,07,1.5,19.5,M,-32.0,M,,0000*63
$GPGLL,3725.0643,N,12203.3804,W,165032.997620,A,A*74
$GPGSA,A,3,01,13,28,07,19,11,17,,,,,,3.0,1.5,2.6*31
$GPRMC,165032.997620,A,3725.0643,N,12203.3804,W,0.000,258.4,070717,,,A*4E
$GPVTG,258.4,T,,M,0.000,N,0.000,K,A*06
$GPZDA,165032.997620,07,07,2017,00,00*62
$GPGGA,165033.997620,3725.0643,N,12203.3804,W,1,07,1.5,19.5,M,-32.0,M,,0000*62
$GPGLL,3725.0643,N,12203.3804,W,165033.997620,A,A*75
$GPGSA,A,3,01,13,28,07,19,11,17,,,,,,3.0,1.5,2.6*31
$GPGSV,3,1,09,17,69,177,32,28,59,030,45,30,54,111,40,13,52,272,40*7E
$GPGSV,3,2,09,19,43,197,31,11,22,055,46,01,21,073,43,07,19,122,48*72
$GPGSV,3,3,09,15,00,000,35*42
$GPRMC,165033.997620,A,3725.0643,N,12203.3804,W,0.000,258.4,070717,,,A*4F
$GPVTG,258.4,T,,M,0.000,N,0.000,K,A*06
$GPZDA,165033.997620,07,07,2017,00,00*63
$GPGGA,165034.997620,3725.0643,N,12203.3804,W,1,06,1.7,19.5,M,-32.0,M,,0000*66
$GPGLL,3725.0643,N,12203.3804,W,165034.997620,A,A*72
$GPGSA,A,3,01,13,28,07,11,17,,,,,,,3.1,1.7,2.6*3A
$GPRMC,165034.997620,A,3725.0643,N,12203.3804,W,0.000,258.4,070717,,,A*48
$GPVTG,258.4,T,,M,0.000,N,0.000,K,A*06
$GPZDA,165034.997620,07,07,2017,00,00*64
$GPGGA,165035.997620,3725.0643,N,12203.3804,W,1,06,1.8,19.5,M,-32.0,M,,0000*68
$GPGLL,3725.0643,N,12203.3804,W,165035.997620,A,A*73
$GPGSA,A,3,01,13,28,07,19,11,,,,,,,4.2,1.8,3.8*30
$GPRMC,165035.997620,A,3725.0643,N,12203.3804,W,0.000,258.4,070717,,,A*49
$GPVTG,258.4,T,,M,0.000,N,0.000,K,A*06
$GPZDA,165035.997620,07,07,2017,00,00*65
$GPGGA,165036.997623,3725.0643,N,12203.3804,W,1,05,2.1,19.5,M,-32.0,M,,0000*61
$GPGLL,3725.0643,N,12203.3804,W,165036.997623,A,A*73
$GPGSA,A,3,01,13,28,07,11,,,,,,,,4.4,2.1,3.8*34
$GPGSV,3,1,09,17,69,177,29,28,59,030,44,30,54,111,43,13,52,272,42*74
$GPGSV,3,2,09,19,43,197,26,11,22,055,39,01,21,073,40,07,19,122,49*7E
$GPGSV,3,3,09,15,00,000,31*46
$GPRMC,165036.997623,A,3725.0643,N,12203.3804,W,0.000,258.4,070717,,,A*49
$GPVTG,258.4,T,,M,0.000,N,0.000,K,A*06
$GPZDA,165036.997623,07,07,2017,00,00*65
$GPGGA,165037.997623,3725.0643,N,12203.3804,W,1,06,1.7,19.5,M,-32.0,M,,0000*66
$GPGLL,3725.0643,N,12203.3804,W,165037.997623,A,A*72
$GPGSA,A,3,01,13,28,07,11,17,,,,,,,3.1,1.7,2.6*3A
$GPRMC,165037.997623,A,3725.0643,N,12203.3804,W,0.000,258.4,070717,,,A*48
$GPVTG,258.4,T,,M,0.000,N,0.000,K,A*06
$GPZDA,165037.997623,07,07,2017,00,00*64
$GPGGA,165038.997623,3725.0643,N,12203.3804,W,1,06,1.7,19.5,M,-32.0,M,,0000*69
$GPGLL,3725.0643,N,12203.3804,W,165038.997623,A,A*7D
$GPGSA,A,3,01,13,28,07,11,17,,,,,,,3.1,1.7,2.6*3A
$GPRMC,165038.997623,A,3725.0643,N,12203.3804,W,0.000,258.4,070717,,,A*47
$GPVTG,258.4,T,,M,0.000,N,0.000,K,A*06
$GPZDA,165038.997623,07,07,2017,00,00*6B
$GPGGA,165039.997627,3725.0643,N,12203.3804,W,1,06,1.7,19.5,M,-32.0,M,,0000*6C
$GPGLL,3725.0643,N,12203.3804,W,165039.997627,A,A*78
$GPGSA,A,3,01,13,28,07,11,17,,,,,,,3.1,1.7,2.6*3A
$GPGSV,3,1,09,17,69,177,34,28,59,030,45,30,54,111,41,13,52,272,34*7A
$GPGSV,3,2,09,19,43,197,28,11,22,055,44,01,21,073,43,07,19,122,49*79
$GPGSV,3,3,09,15,00,000,31*46
$GPRMC,165039.997627,A,3725.0643,N,12203.3804,W,0.000,258.4,070717,,,A*42
$GPVTG,258.4,T,,M,0.000,N,0.000,K,A*06
$GPZDA,165039.997627,07,07,2017,00,00*6E
$GPGGA,165040.997627,3725.0643,N,12203.3804,W,1,07,1.5,19.5,M,-32.0,M,,0000*61
$GPGLL,3725.0643,N,12203.3804,W,165040.997627,A,A*76
$GPGSA,A,3,01,13,28,07,19,11,17,,,,,,3.0,1.5,2.6*31
$GPRMC,165040.997627,A,3725.0643,N,12203.3804,W,0.000,258.4,070717,,,A*4C
$GPVTG,258.4,T,,M,0.000,N,0.000,K,A*06
$GPZDA,165040.997627,07,07,2017,00,00*60
$GPGGA,165041.997627,3725.0643,N,12203.3804,W,1,07,1.5,19.5,M,-32.0,M,,0000*60
$GPGLL,3725.0643,N,12203.3804,W,165041.997627,A,A*77
$GPGSA,A,3,01,13,28,07,19,11,17,,,,,,3.0,1.5,2.6*31
$GPRMC,165041.997627,A,3725.0643,N,12203.3804,W,0.000,258.4,070717,,,A*4D
$GPVTG,258.4,T,,M,0.000,N,0.000,K,A*06
$GPZDA,165041.997627,07,07,2017,00,00*61
$GPGGA,165042.997627,3725.0643,N,12203.3804,W,1,07,1.5,19.5,M,-32.0,M,,0000*63
$GPGLL,3725.0643,N,12203.3804,W,165042.997627,A,A*74
$GPGSA,A,3,01,13,28,07,19,11,17,,,,,,3.0,1.5,2.6*31
$GPGSV,3,1,09,17,69,177,36,28,59,030,45,30,54,111,41,13,52,272,34*78
$GPGSV,3,2,09,19,43,197,31,11,22,055,43,01,21,073,44,07,19,122,49*71
$GPGSV,3,3,09,15,00,000,32*45
$GPRMC,165042.997627,A,3725.0643,N,12203.3804,W,0.000,258.4,070717,,,A*4E
$GPVTG,258.4,T,,M,0.000,N,0.000,K,A*06
$GPZDA,165042.997627,07,07,2017,00,00*62
$GPGGA,165043.997631,3725.0643,N,12203.3804,W,1,07,1.5,19.5,M,-32.0,M,,0000*65
$GPGLL,3725.0643,N,12203.3804,W,165043.997631,A,A*72
$GPGSA,A,3,01,13,28,07,19,11,17,,,,,,3.0,1.5,2.6*31
$GPRMC,165043.997631,A,3725.0643,N,12203.3804,W,0.000,258.4,070717,,,A*48
$GPVTG,258.4,T,,M,0.000,N,0.000,K,A*06
$GPZDA,165043.997631,07,07,2017,00,00*64
$GPGGA,165044.997631,3725.0643,N,12203.3804,W,1,07,1.5,19.5,M,-32.0,M,,0000*62
$GPGLL,3725.0643,N,12203.3804,W,165044.997631,A,A*75
$GPGSA,A,3,01,13,28,07,19,11,17,,,,,,3.0,1.5,2.6*31
$GPRMC,165044.997631,A,3725.0643,N,12203.3804,W,0.000,258.4,070717,,,A*4F
$GPVTG,258.4,T,,M,0.000,N,0.000,K,A*06
$GPZDA,165044.997631,07,07,2017,00,00*63
$GPGGA,165045.997631,3725.0643,N,12203.3804,W,1,07,1.5,19.5,M,-32.0,M,,0000*63
$GPGLL,3725.0643,N,12203.3804,W,165045.997631,A,A*74
$GPGSA,A,3,01,13,28,07,19,11,17,,,,,,3.0,1.5,2.6*31
$GPGSV,3,1,09,17,69,177,36,28,59,030,45,30,54,111,41,13,52,272,34*78
$GPGSV,3,2,09,19,43,197,32,11,22,055,44,01,21,073,43,07,19,122,49*72
$GPGSV,3,3,09,15,00,000,33*44
$GPRMC,165045.997631,A,3725.0643,N,12203.3804,W,0.000,258.4,070717,,,A*4E
$GPVTG,258.4,T,,M,0.000,N,0.000,K,A*06
$GPZDA,165045.997631,07,07,2017,00,00*62
$GPGGA,165046.997631,3725.0643,N,12203.3804,W,1,07,1.5,19.5,M,-32.0,M,,0000*60
$GPGLL,3725.0643,N,12203.3804,W,165046.997631,A,A*77
$GPGSA,A,3,01,13,28,07,19,11,17,,,,,,3.0,1.5,2.6*31
$GPRMC,165046.997631,A,3725.0643,N,12203.3804,W,0.000,258.4,070717,,,A*4D
$GPVTG,258.4,T,,M,0.000,N,0.000,K,A*06
$GPZDA,165046.997631,07,07,2017,00,00*61
$GPGGA,165047.997635,3725.0643,N,12203.3804,W,1,06,1.7,19.5,M,-32.0,M,,0000*66
$GPGLL,3725.0643,N,12203.3804,W,165047.997635,A,A*72
$GPGSA,A,3,01,13,28,07,11,17,,,,,,,3.1,1.7,2.6*3A
$GPRMC,165047.997635,A,3725.0643,N,12203.3804,W,0.000,258.4,070717,,,A*48
$GPVTG,258.4,T,,M,0.000,N,0.000,K,A*06
$GPZDA,165047.997635,07,07,2017,00,00*64
$GPGGA,165048.997635,3725.0643,N,12203.3804,W,1,06,1.7,19.5,M,-32.0,M,,0000*69
$GPGLL,3725.0643,N,12203.3804,W,165048.997635,A,A*7D
$GPGSA,A,3,01,13,28,07,11,17,,,,,,,3.1,1.7,2.6*3A
$GPGSV,3,1,09,17,69,177,31,28,59,030,42,30,54,111,38,13,52,272,35*77
$GPGSV,3,2,09,19,43,197,27,11,22,055,45,01,21,073,48,07,19,122,51*75
$GPGSV,3,3,09,15,00,000,31*46
$GPRMC,165048.997635,A,3725.0643,N,12203.3804,W,0.000,258.4,070717,,,A*47
$GPVTG,258.4,T,,M,0.000,N,0.000,K,A*06
$GPZDA,165048.997635,07,07,2017,00,00*6B
$GPGGA,165049.997635,3725.0643,N,12203.3804,W,1,06,1.7,19.5,M,-32.0,M,,0000*68
$GPGLL,3725.0643,N,12203.3804,W,165049.997635,A,A*7C
$GPGSA,A,3,01,13,28,07,11,17,,,,,,,3.1,1.7,2.6*3A
$GPRMC,165049.997635,A,3725.0643,N,12203.3804,W,0.000,258.4,070717,,,A*46
$GPVTG,258.4,T,,M,0.000,N,0.000,K,A*06
$GPZDA,165049.997635,07,07,2017,00,00*6A
$GPGGA,165050.997635,3725.0643,N,12203.3804,W,1,06,1.7,19.5,M,-32.0,M,,0000*60
$GPGLL,3725.0643,N,12203.3804,W,165050.997635,A,A*74
$GPGSA,A,3,01,13,28,07,11,17,,,,,,,3.1,1.7,2.6*3A
$GPRMC,165050.997635,A,3725.0643,N,12203.3804,W,0.000,258.4,070717,,,A*4E
$GPVTG,258.4,T,,M,0.000,N,0.000,K,A*06
$GPZDA,165050.997635,07,07,2017,00,00*62
$GPGGA,165051.997639,3725.0643,N,12203.3804,W,1,06,1.7,19.5,M,-32.0,M,,0000*6D
$GPGLL,3725.0643,N,12203.3804,W,165051.997639,A,A*79
$GPGSA,A,3,01,13,28,07,11,17,,,,,,,3.1,1.7,2.6*3A
$GPGSV,3,1,09,17,69,177,32,28,59,030,42,30,54,111,38,13,52,272,36*77
$GPGSV,3,2,09,19,43,197,27,11,22,055,45,01,21,073,47,07,19,122,50*7B
$GPGSV,3,3,09,15,00,000,27*41
$GPRMC,165051.997639,A,3725.0643,N,12203.3804,W,0.000,258.4,070717,,,A*43
$GPVTG,258.4,T,,M,0.000,N,0.000,K,A*06
$GPZDA,165051.997639,07,07,2017,00,00*6F
$GPGGA,165052.997639,3725.0659,N,12203.3829,W,1,07,1.5,19.5,M,-32.0,M,,0000*69
$GPGLL,3725.0659,N,12203.3829,W,165052.997639,A,A*7E
$GPGSA,A,3,01,13,28,07,11,17,30,,,,,,2.6,1.5,2.2*39
$GPRMC,165052.997639,A,3725.0659,N,12203.3829,W,0.000,258.4,070717,,,A*44
$GPVTG,258.4,T,,M,0.000,N,0.000,K,A*06
$GPZDA,165052.997639,07,07,2017,00,00*6C
$GPGGA,165053.997639,3725.0659,N,12203.3829,W,1,07,1.5,19.5,M,-32.0,M,,0000*68
$GPGLL,3725.0659,N,12203.3829,W,165053.997639,A,A*7F
$GPGSA,A,3,01,13,28,07,11,17,30,,,,,,2.6,1.5,2.2*39
$GPRMC,165053.997639,A,3725.0659,N,12203.3829,W,0.000,258.4,070717,,,A*45
$GPVTG,258.4,T,,M,0.000,N,0.000,K,A*06
$GPZDA,165053.997639,07,07,2017,00,00*6D
$GPGGA,165054.997643,3725.0659,N,12203.3829,W,1,07,1.5,19.5,M,-32.0,M,,0000*62
$GPGLL,3725.0659,N,12203.3829,W,165054.997643,A,A*75
$GPGSA,A,3,01,13,28,07,11,17,30,,,,,,2.6,1.5,2.2*39
$GPGSV,3,1,09,17,69,177,32,28,59,030,42,30,54,111,39,13,52,272,39*79
$GPGSV,3,2,09,19,43,197,29,11,22,055,45,01,21,073,47,07,19,122,51*74
$GPGSV,3,3,09,15,00,000,24*42
$GPRMC,165054.997643,A,3725.0659,N,12203.3829,W,0.000,258.4,070717,,,A*4F
$GPVTG,258.4,T,,M,0.000,N,0.000,K,A*06
$GPZDA,165054.997643,07,07,2017,00,00*67
$GPGGA,165055.997643,3725.0659,N,12203.3829,W,1,07,1.5,19.5,M,-32.0,M,,0000*63
$GPGLL,3725.0659,N,12203.3829,W,165055.997643,A,A*74
$GPGSA,A,3,01,13,28,07,11,17,30,,,,,,2.6,1.5,2.2*39
$GPRMC,165055.997643,A,3725.0659,N,12203.3829,W,0.000,258.4,070717,,,A*4E
$GPVTG,258.4,T,,M,0.000,N,0.000,K,A*06
$GPZDA,165055.997643,07,07,2017,00,00*66
$GPGGA,165056.997643,3725.0659,N,12203.3829,W,1,07,1.5,19.5,M,-32.0,M,,0000*60
$GPGLL,3725.0659,N,12203.3829,W,165056.997643,A,A*77
$GPGSA,A,3,01,13,28,07,11,17,30,,,,,,2.6,1.5,2.2*39
$GPRMC,165056.997643,A,3725.0659,N,12203.3829,W,0.000,258.4,070717,,,A*4D
$GPVTG,258.4,T,,M,0.000,N,0.000,K,A*06
$GPZDA,165056.997643,07,07,2017,00,00*65
$GPGGA,165057.997643,3725.0659,N,12203.3829,W,1,07,1.5,19.5,M,-32.0,M,,0000*61
$GPGLL,3725.0659,N,12203.3829,W,165057.997643,A,A*76
$GPGSA,A,3,01,13,28,07,11,17,30,,,,,,2.6,1.5,2.2*39
$GPGSV,3,1,09,17,69,177,34,28,59,030,46,30,54,112,38,13,52,272,38*78
$GPGSV,3,2,09,19,43,197,26,11,22,055,47,01,21,073,48,07,19,122,46*70
$GPGSV,3,3,09,15,00,000,25*43
$GPRMC,165057.997643,A,3725.0659,N,12203.3829,W,0.000,258.4,070717,,,A*4C
$GPVTG,258.4,T,,M,0.000,N,0.000,K,A*06
$GPZDA,165057.997643,07,07,2017,00,00*64
$GPGGA,165058.997646,3725.0659,N,12203.3829,W,1,07,1.5,19.5,M,-32.0,M,,0000*6B
$GPGLL,3725.0659,N,12203.3829,W,165058.997646,A,A*7C
$GPGSA,A,3,01,13,28,07,11,17,30,,,,,,2.6,1.5,2.2*39
$GPRMC,165058.997646,A,3725.0659,N,12203.3829,W,0.000,258.4,070717,,,A*46
$GPVTG,258.4,T,,M,0.000,N,0.000,K,A*06
$GPZDA,165058.997646,07,07,2017,00,00*6E
$GPGGA,165059.997646,3725.0663,N,12203.3816,W,1,08,1.3,14.8,M,-32.0,M,,0000*66
$GPGLL,3725.0663,N,12203.3816,W,165059.997646,A,A*78
$GPGSA,A,3,01,13,28,07,19,11,17,30,,,,,2.5,1.3,2.1*37
$GPRMC,165059.997646,A,3725.0663,N,12203.3816,W,0.605,110.5,070717,,,A*4F
$GPVTG,110.5,T,,M,0.605,N,1.121,K,A*08
$GPZDA,165059.997646,07,07,2017,00,00*6F
$GPGGA,165100.997647,3725.0663,N,12203.3816,W,1,08,1.3,14.8,M,-32.0,M,,0000*6A
$GPGLL,3725.0663,N,12203.3816,W,165100.997647,A,A*74
$GPGSA,A,3,01,13,28,07,19,11,17,30,,,,,2.5,1.3,2.1*37
$GPGSV,3,1,09,17,69,177,36,28,59,030,46,30,54,112,39,13,52,272,42*76
$GPGSV,3,2,09,19,43,197,32,11,22,055,40,01,21,073,39,07,19,122,48*7A
$GPGSV,3,3,09,15,00,000,29*4F
$GPRMC,165100.997647,A,3725.0663,N,12203.3816,W,0.000,110.5,070717,,,A*40
$GPVTG,110.5,T,,M,0.000,N,0.000,K,A*08
$GPZDA,165100.997647,07,07,2017,00,00*63
$GPGGA,165101.997648,3725.0663,N,12203.3816,W,1,06,1.6,14.8,M,-32.0,M,,0000*6F
$GPGLL,3725.0663,N,12203.3816,W,165101.997648,A,A*7A
$GPGSA,A,3,01,13,28,07,11,30,,,,,,,2.9,1.6,2.4*35
$GPRMC,165101.997648,A,3725.0663,N,12203.3816,W,0.000,110.5,070717,,,A*4E
$GPVTG,110.5,T,,M,0.000,N,0.000,K,A*08
$GPZDA,165101.997648,07,07,2017,00,00*6D
$GPGGA,165102.997649,3725.0663,N,12203.3816,W,1,07,1.5,14.8,M,-32.0,M,,0000*6F
$GPGLL,3725.0663,N,12203.3816,W,165102.997649,A,A*78
$GPGSA,A,3,01,13,28,07,11,17,30,,,,,,2.6,1.5,2.2*39
$GPRMC,165102.997649,A,3725.0663,N,12203.3816,W,0.000,110.5,070717,,,A*4C
$GPVTG,110.5,T,,M,0.000,N,0.000,K,A*08
$GPZDA,165102.997649,07,07,2017,00,00*6F
$GPGGA,165103.997650,3725.0663,N,12203.3816,W,1,07,1.4,14.8,M,-32.0,M,,0000*67
$GPGLL,3725.0663,N,12203.3816,W,165103.997650,A,A*71
$GPGSA,A,3,01,13,28,07,19,11,30,,,,,,2.8,1.4,2.4*3E
$GPGSV,3,1,09,17,69,177,26,28,59,030,47,30,54,112,40,13,52,272,47*7D
$GPGSV,3,2,09,19,43,197,31,11,22,055,44,01,21,073,42,07,19,122,46*7F
$GPGSV,3,3,09,15,00,000,35*42
$GPRMC,165103.997650,A,3725.0663,N,12203.3816,W,0.000,110.5,070717,,,A*45
$GPVTG,110.5,T,,M,0.000,N,0.000,K,A*08
$GPZDA,165103.997650,07,07,2017,00,00*66
$GPGGA,165104.997651,3725.0663,N,12203.3816,W,1,06,1.6,14.8,M,-32.0,M,,0000*62
$GPGLL,3725.0663,N,12203.3816,W,165104.997651,A,A*77
$GPGSA,A,3,01,13,28,07,11,30,,,,,,,2.9,1.6,2.4*35
$GPRMC,165104.997651,A,3725.0663,N,12203.3816,W,0.000,110.5,070717,,,A*43
$GPVTG,110.5,T,,M,0.000,N,0.000,K,A*08
$GPZDA,165104.997651,07,07,2017,00,00*60
$GPGGA,165105.997652,3725.0663,N,12203.3816,W,1,06,1.6,14.8,M,-32.0,M,,0000*60
$GPGLL,3725.0663,N,12203.3816,W,165105.997652,A,A*75
$GPGSA,A,3,01,13,28,07,11,30,,,,,,,2.9,1.6,2.4*35
$GPRMC,165105.997652,A,3725.0663,N,12203.3816,W,0.000,110.5,070717,,,A*41
$GPVTG,110.5,T,,M,0.000,N,0.000,K,A*08
$GPZDA,165105.997652,07,07,2017,00,00*62
$GPGGA,165106.997653,3725.0663,N,12203.3816,W,1,08,1.3,14.8,M,-32.0,M,,0000*69
$GPGLL,3725.0663,N,12203.3816,W,165106.997653,A,A*77
$GPGSA,A,3,01,13,28,07,19,11,17,30,,,,,2.5,1.3,2.1*37
$GPGSV,3,1,09,17,69,177,34,28,59,030,47,30,54,112,40,13,52,272,48*71
$GPGSV,3,2,09,19,43,197,30,11,22,055,47,01,21,073,44,07,19,122,45*78
$GPGSV,3,3,09,15,00,000,32*45
$GPRMC,165106.997653,A,3725.0663,N,12203.3816,W,0.000,110.5,070717,,,A*43
$GPVTG,110.5,T,,M,0.000,N,0.000,K,A*08
$GPZDA,165106.997653,07,07,2017,00,00*60
$GPGGA,165107.997654,3725.0663,N,12203.3816,W,1,06,3.5,14.8,M,-32.0,M,,0000*65
$GPGLL,3725.0663,N,12203.3816,W,165107.997654,A,A*71
$GPGSA,A,3,01,28,07,11,17,30,,,,,,,5.4,3.5,4.0*38
$GPRMC,165107.997654,A,3725.0663,N,12203.3816,W,0.000,110.5,070717,,,A*45
$GPVTG,110.5,T,,M,0.000,N,0.000,K,A*08
$GPZDA,165107.997654,07,07,2017,00,00*66
$GPGGA,165108.997655,3725.0655,N,12203.3825,W,1,06,1.7,22.2,M,-32.0,M,,0000*61
$GPGLL,3725.0655,N,12203.3825,W,165108.997655,A,A*7A
$GPGSA,A,3,01,13,28,07,11,17,,,,,,,3.1,1.7,2.6*3A
$GPRMC,165108.997655,A,3725.0655,N,12203.3825,W,0.891,272.6,070717,,,A*4A
$GPVTG,272.6,T,,M,0.891,N,1.651,K,A*0F
$GPZDA,165108.997655,07,07,2017,00,00*68
$GPGGA,165109.997656,3725.0656,N,12203.3827,W,1,06,1.6,21.2,M,-32.0,M,,0000*60
$GPGLL,3725.0656,N,12203.3827,W,165109.997656,A,A*79
$GPGSA,A,3,01,13,28,07,11,30,,,,,,,2.9,1.6,2.4*35
$GPGSV,3,1,09,17,69,177,26,28,59,030,38,30,54,112,30,13,52,272,35*77
$GPGSV,3,2,09,19,43,197,27,11,22,055,36,01,21,073,34,07,19,122,34*79
$GPGSV,3,3,09,15,00,000,31*46
$GPRMC,165109.997656,A,3725.0656,N,12203.3827,W,0.652,312.2,070717,,,A*4B
$GPVTG,312.2,T,,M,0.652,N,1.207,K,A*0A
$GPZDA,165109.997656,07,07,2017,00,00*6A
$GPGGA,165110.997657,3725.0664,N,12203.3828,W,1,07,1.4,20.4,M,-32.0,M,,0000*63
$GPGLL,3725.0664,N,12203.3828,W,165110.997657,A,A*7E
$GPGSA,A,3,01,13,28,07,19,11,30,,,,,,2.8,1.4,2.4*3E
$GPRMC,165110.997657,A,3725.0664,N,12203.3828,W,0.000,312.2,070717,,,A*4D
$GPVTG,312.2,T,,M,0.000,N,0.000,K,A*0F
$GPZDA,165110.997657,07,07,2017,00,00*63
$GPGGA,165111.997658,3725.0670,N,12203.3825,W,1,08,1.3,21.0,M,-32.0,M,,0000*68
$GPGLL,3725.0670,N,12203.3825,W,165111.997658,A,A*78
$GPGSA,A,3,01,13,28,07,19,11,17,30,,,,,2.5,1.3,2.1*37
$GPRMC,165111.997658,A,3725.0670,N,12203.3825,W,1.082,060.5,070717,,,A*41
$GPVTG,060.5,T,,M,1.082,N,2.003,K,A*04
$GPZDA,165111.997658,07,07,2017,00,00*6D
$GPGGA,165112.997660,3725.0657,N,12203.3823,W,1,08,1.3,21.8,M,-32.0,M,,0000*6B
$GPGLL,3725.0657,N,12203.3823,W,165112.997660,A,A*73
$GPGSA,A,3,01,13,28,07,19,11,17,30,,,,,2.5,1.3,2.1*37
$GPGSV,3,1,09,17,69,177,34,28,59,031,44,30,54,112,41,13,52,272,40*7A
$GPGSV,3,2,09,19,43,197,31,11,22,055,45,01,21,073,47,07,19,122,44*79
$GPGSV,3,3,09,15,00,000,35*42
$GPRMC,165112.997660,A,3725.0657,N,12203.3823,W,0.000,060.5,070717,,,A*41
$GPVTG,060.5,T,,M,0.000,N,0.000,K,A*0E
$GPZDA,165112.997660,07,07,2017,00,00*65
$GPGGA,165113.997661,3725.0646,N,12203.3825,W,1,08,1.3,21.1,M,-32.0,M,,0000*64
$GPGLL,3725.0646,N,12203.3825,W,165113.997661,A,A*75
$GPGSA,A,3,01,13,28,07,19,11,17,30,,,,,2.5,1.3,2.1*37
$GPRMC,165113.997661,A,3725.0646,N,12203.3825,W,0.000,060.5,070717,,,A*47
$GPVTG,060.5,T,,M,0.000,N,0.000,K,A*0E
$GPZDA,165113.997661,07,07,2017,00,00*65
$GPGGA,165114.997662,3725.0647,N,12203.3823,W,1,08,1.3,20.8,M,-32.0,M,,0000*6F
$GPGLL,3725.0647,N,12203.3823,W,165114.997662,A,A*76
$GPGSA,A,3,01,13,28,07,19,11,17,30,,,,,2.5,1.3,2.1*37
$GPRMC,165114.997662,A,3725.0647,N,12203.3823,W,0.000,060.5,070717,,,A*44
$GPVTG,060.5,T,,M,0.000,N,0.000,K,A*0E
$GPZDA,165114.997662,07,07,2017,00,00*61
$GPGGA,165115.997663,3725.0652,N,12203.3824,W,1,07,1.5,19.0,M,-32.0,M,,0000*67
$GPGLL,3725.0652,N,12203.3824,W,165115.997663,A,A*75
$GPGSA,A,3,01,13,28,07,11,17,30,,,,,,2.6,1.5,2.2*39
$GPGSV,3,1,09,17,69,177,34,28,59,031,50,30,54,112,34,13,52,272,32*78
$GPGSV,3,2,09,19,43,197,27,11,22,055,42,01,21,073,44,07,19,122,39*70
$GPGSV,3,3,09,15,00,000,35*42
$GPRMC,165115.997663,A,3725.0652,N,12203.3824,W,0.000,060.5,070717,,,A*47
$GPVTG,060.5,T,,M,0.000,N,0.000,K,A*0E
$GPZDA,165115.997663,07,07,2017,00,00*61
$GPGGA,165116.997663,3725.0656,N,12203.3824,W,1,07,1.5,17.9,M,-32.0,M,,0000*67
$GPGLL,3725.0656,N,12203.3824,W,165116.997663,A,A*72
$GPGSA,A,3,01,13,28,07,19,11,17,,,,,,3.0,1.5,2.6*31
$GPRMC,165116.997663,A,3725.0656,N,12203.3824,W,0.000,060.5,070717,,,A*40
$GPVTG,060.5,T,,M,0.000,N,0.000,K,A*0E
$GPZDA,165116.997663,07,07,2017,00,00*62
$GPGGA,165117.997663,3725.0655,N,12203.3824,W,1,05,2.0,17.8,M,-32.0,M,,0000*60
$GPGLL,3725.0655,N,12203.3824,W,165117.997663,A,A*70
$GPGSA,A,3,01,13,28,07,11,,,,,,,,4.3,2.0,3.8*32
$GPRMC,165117.997663,A,3725.0655,N,12203.3824,W,1.925,003.0,070717,,,A*4D
$GPVTG,003.0,T,,M,1.925,N,3.564,K,A*05
$GPZDA,165117.997663,07,07,2017,00,00*63
$GPGGA,165118.997665,3725.0654,N,12203.3826,W,1,06,1.6,17.4,M,-32.0,M,,0000*60
$GPGLL,3725.0654,N,12203.3826,W,165118.997665,A,A*7A
$GPGSA,A,3,01,13,28,07,11,30,,,,,,,2.9,1.6,2.4*35
$GPGSV,3,1,09,17,69,177,29,28,59,031,39,30,54,112,34,13,52,272,39*70
$GPGSV,3,2,09,19,43,197,26,11,22,055,38,01,21,073,34,07,19,122,36*74
$GPGSV,3,3,09,15,00,000,34*43
$GPRMC,165118.997665,A,3725.0654,N,12203.3826,W,1.004,053.0,070717,,,A*48
$GPVTG,053.0,T,,M,1.004,N,1.859,K,A*0B
$GPZDA,165118.997665,07,07,2017,00,00*6A
$GPGGA,165119.997667,3725.0648,N,12203.3815,W,1,06,1.6,20.2,M,-32.0,M,,0000*6C
$GPGLL,3725.0648,N,12203.3815,W,165119.997667,A,A*74
$GPGSA,A,3,01,13,28,07,11,30,,,,,,,2.9,1.6,2.4*35
$GPRMC,165119.997667,A,3725.0648,N,12203.3815,W,2.989,087.7,070717,,,A*47
$GPVTG,087.7,T,,M,2.989,N,5.536,K,A*0A
$GPZDA,165119.997667,07,07,2017,00,00*69
$GPGGA,165120.997667,3725.0624,N,12203.3779,W,1,06,1.6,24.9,M,-32.0,M,,0000*66
$GPGLL,3725.0624,N,12203.3779,W,165120.997667,A,A*71
$GPGSA,A,3,01,13,28,07,11,30,,,,,,,2.9,1.6,2.4*35
$GPRMC,165120.997667,A,3725.0624,N,12203.3779,W,1.021,082.1,070717,,,A*49
$GPVTG,082.1,T,,M,1.021,N,1.890,K,A*04
$GPZDA,165120.997667,07,07,2017,00,00*63
$GPGGA,165121.997669,3725.0641,N,12203.3781,W,1,06,1.6,29.0,M,-32.0,M,,0000*69
$GPGLL,3725.0641,N,12203.3781,W,165121.997669,A,A*7A
$GPGSA,A,3,01,13,28,07,11,30,,,,,,,2.9,1.6,2.4*35
$GPGSV,3,1,09,17,69,177,27,28,59,031,40,30,54,112,43,13,52,271,35*7F
$GPGSV,3,2,09,19,43,197,26,11,22,055,41,01,21,073,40,07,19,122,44*7C
$GPGSV,3,3,09,15,00,000,28*4E
$GPRMC,165121.997669,A,3725.0641,N,12203.3781,W,0.940,082.5,070717,,,A*49
$GPVTG,082.5,T,,M,0.940,N,1.741,K,A*0C
$GPZDA,165121.997669,07,07,2017,00,00*6C
$GPGGA,165122.997669,3725.0633,N,12203.3803,W,1,08,1.3,26.4,M,-32.0,M,,0000*6A
$GPGLL,3725.0633,N,12203.3803,W,165122.997669,A,A*79
$GPGSA,A,3,01,13,28,07,19,11,17,30,,,,,2.5,1.3,2.1*37
$GPRMC,165122.997669,A,3725.0633,N,12203.3803,W,3.167,251.1,070717,,,A*4C
$GPVTG,251.1,T,,M,3.167,N,5.865,K,A*07
$GPZDA,165122.997669,07,07,2017,00,00*6F
$GPGGA,165123.997671,3725.0660,N,12203.3828,W,1,06,1.6,23.1,M,-32.0,M,,0000*66
$GPGLL,3725.0660,N,12203.3828,W,165123.997671,A,A*7E
$GPGSA,A,3,01,13,28,07,11,30,,,,,,,2.9,1.6,2.4*35
$GPRMC,165123.997671,A,3725.0660,N,12203.3828,W,0.000,251.1,070717,,,A*48
$GPVTG,251.1,T,,M,0.000,N,0.000,K,A*0A
$GPZDA,165123.997671,07,07,2017,00,00*67
$GPGGA,165124.997671,3725.0648,N,12203.3817,W,1,07,1.4,23.2,M,-32.0,M,,0000*67
$GPGLL,3725.0648,N,12203.3817,W,165124.997671,A,A*7F
$GPGSA,A,3,01,13,28,07,19,11,30,,,,,,2.8,1.4,2.4*3E
$GPGSV,3,1,09,17,69,177,26,28,59,031,49,30,54,112,44,13,52,271,52*71
$GPGSV,3,2,09,19,43,197,30,11,22,055,46,01,21,073,45,07,19,122,44*79
$GPGSV,3,3,09,15,00,000,37*40
$GPRMC,165124.997671,A,3725.0648,N,12203.3817,W,0.000,251.1,070717,,,A*49
$GPVTG,251.1,T,,M,0.000,N,0.000,K,A*0A
$GPZDA,165124.997671,07,07,2017,00,00*60
$GPGGA,165125.997675,3725.0659,N,12203.3814,W,1,06,1.6,25.8,M,-32.0,M,,0000*6E
$GPGLL,3725.0659,N,12203.3814,W,165125.997675,A,A*79
$GPGSA,A,3,01,13,28,07,11,30,,,,,,,2.9,1.6,2.4*35
$GPRMC,165125.997675,A,3725.0659,N,12203.3814,W,0.000,251.1,070717,,,A*4F
$GPVTG,251.1,T,,M,0.000,N,0.000,K,A*0A
$GPZDA,165125.997675,07,07,2017,00,00*65
$GPGGA,165126.997675,3725.0663,N,12203.3814,W,1,07,1.4,26.2,M,-32.0,M,,0000*6E
$GPGLL,3725.0663,N,12203.3814,W,165126.997675,A,A*73
$GPGSA,A,3,01,13,28,07,19,11,30,,,,,,2.8,1.4,2.4*3E
$GPRMC,165126.997675,A,3725.0663,N,12203.3814,W,0.000,251.1,070717,,,A*45
$GPVTG,251.1,T,,M,0.000,N,0.000,K,A*0A
$GPZDA,165126.997675,07,07,2017,00,00*66
$GPGGA,165127.997675,3725.0665,N,12203.3814,W,1,06,1.6,26.3,M,-32.0,M,,0000*6B
$GPGLL,3725.0665,N,12203.3814,W,165127.997675,A,A*74
$GPGSA,A,3,01,13,28,07,11,30,,,,,,,2.9,1.6,2.4*35
$GPGSV,3,1,09,17,69,177,23,28,59,031,49,30,54,112,46,13,52,271,52*76
$GPGSV,3,2,09,19,43,197,29,11,22,055,39,01,21,073,44,07,19,122,47*7B
$GPGSV,3,3,09,15,00,000,36*41
$GPRMC,165127.997675,A,3725.0665,N,12203.3814,W,0.000,251.1,070717,,,A*42
$GPVTG,251.1,T,,M,0.000,N,0.000,K,A*0A
$GPZDA,165127.997675,07,07,2017,00,00*67
$GPGGA,165128.997675,3725.0664,N,12203.3816,W,1,06,1.6,25.0,M,-32.0,M,,0000*67
$GPGLL,3725.0664,N,12203.3816,W,165128.997675,A,A*78
$GPGSA,A,3,01,13,28,07,11,30,,,,,,,2.9,1.6,2.4*35
$GPRMC,165128.997675,A,3725.0664,N,12203.3816,W,0.000,251.1,070717,,,A*4E
$GPVTG,251.1,T,,M,0.000,N,0.000,K,A*0A
$GPZDA,165128.997675,07,07,2017,00,00*68
$GPGGA,165129.997677,3725.0664,N,12203.3817,W,1,06,1.6,24.3,M,-32.0,M,,0000*67
$GPGLL,3725.0664,N,12203.3817,W,165129.997677,A,A*7A
$GPGSA,A,3,01,13,28,07,11,30,,,,,,,2.9,1.6,2.4*35
$GPRMC,165129.997677,A,3725.0664,N,12203.3817,W,0.000,251.1,070717,,,A*4C
$GPVTG,251.1,T,,M,0.000,N,0.000,K,A*0A
$GPZDA,165129.997677,07,07,2017,00,00*6B
$GPGGA,165130.997677,3725.0664,N,12203.3818,W,1,08,1.0,23.9,M,-32.0,M,,0000*65
$GPGLL,3725.0664,N,12203.3818,W,165130.997677,A,A*7D
$GPGSA,A,3,01,13,28,07,19,11,15,30,,,,,2.1,1.0,1.8*38
$GPGSV,3,1,09,17,69,177,24,28,59,031,47,30,54,112,45,13,52,271,51*7F
$GPGSV,3,2,09,19,43,197,30,15,24,305,36,11,22,055,42,01,21,073,44*73
$GPGSV,3,3,09,07,19,122,48*42
$GPRMC,165130.997677,A,3725.0664,N,12203.3818,W,0.000,251.1,070717,,,A*4B
$GPVTG,251.1,T,,M,0.000,N,0.000,K,A*0A
$GPZDA,165130.997677,07,07,2017,00,00*63
$GPGGA,165131.997679,3725.0663,N,12203.3819,W,1,08,1.0,24.1,M,-32.0,M,,0000*63
$GPGLL,3725.0663,N,12203.3819,W,165131.997679,A,A*74
$GPGSA,A,3,01,13,28,07,19,11,15,30,,,,,2.1,1.0,1.8*38
$GPRMC,165131.997679,A,3725.0663,N,12203.3819,W,0.000,251.1,070717,,,A*42
$GPVTG,251.1,T,,M,0.000,N,0.000,K,A*0A
$GPZDA,165131.997679,07,07,2017,00,00*6C
$GPGGA,165132.997681,3725.0663,N,12203.3819,W,1,09,1.0,24.1,M,-32.0,M,,0000*66
$GPGLL,3725.0663,N,12203.3819,W,165132.997681,A,A*70
$GPGSA,A,3,01,13,28,07,19,11,17,15,30,,,,1.9,1.0,1.6*3B
$GPRMC,165132.997681,A,3725.0663,N,12203.3819,W,0.000,251.1,070717,,,A*46
$GPVTG,251.1,T,,M,0.000,N,0.000,K,A*0A
$GPZDA,165132.997681,07,07,2017,00,00*68
$GPGGA,165133.997681,3725.0664,N,12203.3819,W,1,08,1.1,23.9,M,-32.0,M,,0000*6F
$GPGLL,3725.0664,N,12203.3819,W,165133.997681,A,A*76
$GPGSA,A,3,01,13,28,07,19,17,15,30,,,,,2.0,1.1,1.6*30
$GPGSV,3,1,09,17,69,177,33,28,59,031,48,30,54,112,40,13,52,271,50*72
$GPGSV,3,2,09,19,43,197,30,15,24,305,33,11,22,055,25,01,21,073,44*77
$GPGSV,3,3,09,07,19,122,46*4C
$GPRMC,165133.997681,A,3725.0664,N,12203.3819,W,0.000,251.1,070717,,,A*40
$GPVTG,251.1,T,,M,0.000,N,0.000,K,A*0A
$GPZDA,165133.997681,07,07,2017,00,00*69
$GPGGA,165134.997681,3725.0664,N,12203.3819,W,1,08,1.2,23.9,M,-32.0,M,,0000*6B
$GPGLL,3725.0664,N,12203.3819,W,165134.997681,A,A*71
$GPGSA,A,3,01,13,28,07,11,17,15,30,,,,,2.0,1.2,1.6*3B
$GPRMC,165134.997681,A,3725.0664,N,12203.3819,W,0.000,251.1,070717,,,A*47
$GPVTG,251.1,T,,M,0.000,N,0.000,K,A*0A
$GPZDA,165134.997681,07,07,2017,00,00*6E
$GPGGA,165135.997684,3725.0664,N,12203.3819,W,1,08,1.2,23.9,M,-32.0,M,,0000*6F
$GPGLL,3725.0664,N,12203.3819,W,165135.997684,A,A*75
$GPGSA,A,3,01,13,28,07,11,17,15,30,,,,,2.0,1.2,1.6*3B
$GPRMC,165135.997684,A,3725.0664,N,12203.3819,W,0.000,251.1,070717,,,A*43
$GPVTG,251.1,T,,M,0.000,N,0.000,K,A*0A
$GPZDA,165135.997684,07,07,2017,00,00*6A
$GPGGA,165136.997684,3725.0664,N,12203.3819,W,1,08,1.2,23.9,M,-32.0,M,,0000*6C
$GPGLL,3725.0664,N,12203.3819,W,165136.997684,A,A*76
$GPGSA,A,3,01,13,28,07,11,17,15,30,,,,,2.0,1.2,1.6*3B
$GPGSV,3,1,09,17,69,177,35,28,59,031,48,30,54,112,41,13,52,271,50*75
$GPGSV,3,2,09,19,43,197,24,15,24,305,36,11,22,055,31,01,21,073,44*72
$GPGSV,3,3,09,07,19,122,45*4F
$GPRMC,165136.997684,A,3725.0664,N,12203.3819,W,0.000,251.1,070717,,,A*40
$GPVTG,251.1,T,,M,0.000,N,0.000,K,A*0A
$GPZDA,165136.997684,07,07,2017,00,00*69
$GPGGA,165137.997684,3725.0664,N,12203.3819,W,1,08,1.2,23.9,M,-32.0,M,,0000*6D
$GPGLL,3725.0664,N,12203.3819,W,165137.997684,A,A*77
$GPGSA,A,3,01,13,28,07,11,17,15,30,,,,,2.0,1.2,1.6*3B
$GPRMC,165137.997684,A,3725.0664,N,12203.3819,W,0.000,251.1,070717,,,A*41
$GPVTG,251.1,T,,M,0.000,N,0.000,K,A*0A
$GPZDA,165137.997684,07,07,2017,00,00*68
$GPGGA,165138.997684,3725.0664,N,12203.3819,W,1,08,1.2,23.9,M,-32.0,M,,0000*62
$GPGLL,3725.0664,N,12203.3819,W,165138.997684,A,A*78
$GPGSA,A,3,01,13,28,07,11,17,15,30,,,,,2.0,1.2,1.6*3B
$GPRMC,165138.997684,A,3725.0664,N,12203.3819,W,0.000,251.1,070717,,,A*4E
$GPVTG,251.1,T,,M,0.000,N,0.000,K,A*0A
$GPZDA,165138.997684,07,07,2017,00,00*67
$GPGGA,165139.997688,3725.0664,N,12203.3819,W,1,08,1.2,23.9,M,-32.0,M,,0000*6F
$GPGLL,3725.0664,N,12203.3819,W,165139.997688,A,A*75
$GPGSA,A,3,01,13,28,07,11,17,15,30,,,,,2.0,1.2,1.6*3B
$GPGSV,3,1,09,17,69,177,33,28,59,031,48,30,54,112,39,13,52,271,51*7D
$GPGSV,3,2,09,19,43,197,24,15,24,305,38,11,22,055,35,01,21,073,42*7E
$GPGSV,3,3,09,07,19,122,45*4F
$GPRMC,165139.997688,A,3725.0664,N,12203.3819,W,0.000,251.1,070717,,,A*43
$GPVTG,251.1,T,,M,0.000,N,0.000,K,A*0A
$GPZDA,165139.997688,07,07,2017,00,00*6A
$GPGGA,165140.997688,3725.0664,N,12203.3819,W,1,08,1.2,23.9,M,-32.0,M,,0000*61
$GPGLL,3725.0664,N,12203.3819,W,165140.997688,A,A*7B
$GPGSA,A,3,01,13,28,07,11,17,15,30,,,,,2.0,1.2,1.6*3B
$GPRMC,165140.997688,A,3725.0664,N,12203.3819,W,0.000,251.1,070717,,,A*4D
$GPVTG,251.1,T,,M,0.000,N,0.000,K,A*0A
$GPZDA,165140.997688,07,07,2017,00,00*64
$GPGGA,165141.997688,3725.0664,N,12203.3819,W,1,08,1.2,23.9,M,-32.0,M,,0000*60
$GPGLL,3725.0664,N,12203.3819,W,165141.997688,A,A*7A
$GPGSA,A,3,01,13,28,07,11,17,15,30,,,,,2.0,1.2,1.6*3B
$GPRMC,165141.997688,A,3725.0664,N,12203.3819,W,0.000,251.1,070717,,,A*4C
$GPVTG,251.1,T,,M,0.000,N,0.000,K,A*0A
$GPZDA,165141.997688,07,07,2017,00,00*65
$GPGGA,165142.997688,3725.0664,N,12203.3819,W,1,08,1.2,23.9,M,-32.0,M,,0000*63
$GPGLL,3725.0664,N,12203.3819,W,165142.997688,A,A*79
$GPGSA,A,3,01,13,28,07,11,17,15,30,,,,,2.0,1.2,1.6*3B
$GPGSV,3,1,09,17,69,177,32,28,59,031,47,30,54,112,37,13,52,271,50*7C
$GPGSV,3,2,09,19,43,197,23,15,24,305,36,11,22,055,37,01,21,073,43*74
$GPGSV,3,3,09,07,19,122,44*4E
$GPRMC,165142.997688,A,3725.0664,N,12203.3819,W,0.000,251.1,070717,,,A*4F
$GPVTG,251.1,T,,M,0.000,N,0.000,K,A*0A
$GPZDA,165142.997688,07,07,2017,00,00*66
$GPGGA,165143.997692,3725.0664,N,12203.3819,W,1,08,1.2,23.9,M,-32.0,M,,0000*69
$GPGLL,3725.0664,N,12203.3819,W,165143.997692,A,A*73
$GPGSA,A,3,01,13,28,07,11,17,15,30,,,,,2.0,1.2,1.6*3B
$GPRMC,165143.997692,A,3725.0664,N,12203.3819,W,0.000,251.1,070717,,,A*45
$GPVTG,251.1,T,,M,0.000,N,0.000,K,A*0A
$GPZDA,165143.997692,07,07,2017,00,00*6C
$GPGGA,165144.997692,3725.0664,N,12203.3819,W,1,08,1.2,23.9,M,-32.0,M,,0000*6E
$GPGLL,3725.0664,N,12203.3819,W,165144.997692,A,A*74
$GPGSA,A,3,01,13,28,07,11,17,15,30,,,,,2.0,1.2,1.6*3B
$GPRMC,165144.997692,A,3725.0664,N,12203.3819,W,0.000,251.1,070717,,,A*42
$GPVTG,251.1,T,,M,0.000,N,0.000,K,A*0A
$GPZDA,165144.997692,07,07,2017,00,00*6B
$GPGGA,165145.997692,3725.0664,N,12203.3819,W,1,08,1.2,23.9,M,-32.0,M,,0000*6F
$GPGLL,3725.0664,N,12203.3819,W,165145.997692,A,A*75
$GPGSA,A,3,01,13,28,07,11,17,15,30,,,,,2.0,1.2,1.6*3B
$GPGSV,3,1,09,17,69,177,30,28,59,031,50,30,54,112,39,13,52,271,50*76
$GPGSV,3,2,09,19,43,197,29,15,24,305,37,11,22,055,39,01,21,073,44*76
$GPGSV,3,3,09,07,19,122,39*44
$GPRMC,165145.997692,A,3725.0664,N,12203.3819,W,0.000,251.1,070717,,,A*43
$GPVTG,251.1,T,,M,0.000,N,0.000,K,A*0A
$GPZDA,165145.997692,07,07,2017,00,00*6A
$GPGGA,165146.997696,3725.0664,N,12203.3819,W,1,07,1.2,23.9,M,-32.0,M,,0000*67
$GPGLL,3725.0664,N,12203.3819,W,165146.997696,A,A*72
$GPGSA,A,3,01,13,28,07,11,15,30,,,,,,2.2,1.2,1.8*31
$GPRMC,165146.997696,A,3725.0664,N,12203.3819,W,0.000,251.1,070717,,,A*44
$GPVTG,251.1,T,,M,0.000,N,0.000,K,A*0A
$GPZDA,165146.997696,07,07,2017,00,00*6D
$GPGGA,165147.997696,3725.0664,N,12203.3819,W,1,08,1.2,23.9,M,-32.0,M,,0000*69
$GPGLL,3725.0664,N,12203.3819,W,165147.997696,A,A*73
$GPGSA,A,3,01,13,28,07,11,17,15,30,,,,,2.0,1.2,1.6*3B
$GPRMC,165147.997696,A,3725.0664,N,12203.3819,W,0.000,251.1,070717,,,A*45
$GPVTG,251.1,T,,M,0.000,N,0.000,K,A*0A
$GPZDA,165147.997696,07,07,2017,00,00*6C
$GPGGA,165148.997696,3725.0664,N,12203.3819,W,1,07,1.2,23.9,M,-32.0,M,,0000*69
$GPGLL,3725.0664,N,12203.3819,W,165148.997696,A,A*7C
$GPGSA,A,3,01,13,28,07,11,17,15,,,,,,2.1,1.2,1.7*38
$GPGSV,3,1,09,17,69,177,31,28,59,031,50,30,54,112,27,13,52,271,48*71
$GPGSV,3,2,09,19,43,197,25,15,24,305,40,11,22,055,37,01,21,073,46*76
$GPGSV,3,3,09,07,19,122,41*4B
$GPRMC,165148.997696,A,3725.0664,N,12203.3819,W,0.000,251.1,070717,,,A*4A
$GPVTG,251.1,T,,M,0.000,N,0.000,K,A*0A
$GPZDA,165148.997696,07,07,2017,00,00*63
$GPGGA,165149.997696,3725.0664,N,12203.3819,W,1,07,1.2,23.9,M,-32.0,M,,0000*68
$GPGLL,3725.0664,N,12203.3819,W,165149.997696,A,A*7D
$GPGSA,A,3,01,13,28,07,11,17,15,,,,,,2.1,1.2,1.7*38
$GPRMC,165149.997696,A,3725.0664,N,12203.3819,W,0.000,251.1,070717,,,A*4B
$GPVTG,251.1,T,,M,0.000,N,0.000,K,A*0A
$GPZDA,165149.997696,07,07,2017,00,00*62
$GPGGA,165150.997700,3725.0664,N,12203.3819,W,1,08,1.2,23.9,M,-32.0,M,,0000*61
$GPGLL,3725.0664,N,12203.3819,W,165150.997700,A,A*7B
$GPGSA,A,3,01,13,28,07,11,17,15,30,,,,,2.0,1.2,1.6*3B
$GPRMC,165150.997700,A,3725.0664,N,12203.3819,W,0.000,251.1,070717,,,A*4D
$GPVTG,251.1,T,,M,0.000,N,0.000,K,A*0A
$GPZDA,165150.997700,07,07,2017,00,00*64
$GPGGA,165151.997700,3725.0664,N,12203.3819,W,1,08,1.2,23.9,M,-32.0,M,,0000*60
$GPGLL,3725.0664,N,12203.3819,W,165151.997700,A,A*7A
$GPGSA,A,3,01,13,28,07,11,17,15,30,,,,,2.0,1.2,1.6*3B
$GPGSV,3,1,09,17,69,177,34,28,59,031,52,30,54,112,32,13,52,271,50*7B
$GPGSV,3,2,09,19,43,197,26,15,24,305,40,11,22,055,40,01,21,072,48*7A
$GPGSV,3,3,09,07,19,122,43*49
$GPRMC,165151.997700,A,3725.0664,N,12203.3819,W,0.000,251.1,070717,,,A*4C
$GPVTG,251.1,T,,M,0.000,N,0.000,K,A*0A
$GPZDA,165151.997700,07,07,2017,00,00*65
$GPGGA,165152.997700,3725.0664,N,12203.3819,W,1,08,1.2,23.9,M,-32.0,M,,0000*63
$GPGLL,3725.0664,N,12203.3819,W,165152.997700,A,A*79
$GPGSA,A,3,01,13,28,07,11,17,15,30,,,,,2.0,1.2,1.6*3B
$GPRMC,165152.997700,A,3725.0664,N,12203.3819,W,0.000,251.1,070717,,,A*4F
$GPVTG,251.1,T,,M,0.000,N,0.000,K,A*0A
$GPZDA,165152.997700,07,07,2017,00,00*66
$GPGGA,165153.997700,3725.0664,N,12203.3819,W,1,07,1.2,23.9,M,-32.0,M,,0000*6D
$GPGLL,3725.0664,N,12203.3819,W,165153.997700,A,A*78
$GPGSA,A,3,01,13,28,07,11,15,30,,,,,,2.2,1.2,1.8*31
$GPRMC,165153.997700,A,3725.0664,N,12203.3819,W,0.000,251.1,070717,,,A*4E
$GPVTG,251.1,T,,M,0.000,N,0.000,K,A*0A
$GPZDA,165153.997700,07,07,2017,00,00*67
$GPGGA,165154.997704,3725.0669,N,12203.3819,W,1,08,1.2,26.0,M,-32.0,M,,0000*60
$GPGLL,3725.0669,N,12203.3819,W,165154.997704,A,A*76
$GPGSA,A,3,01,13,28,07,11,17,15,30,,,,,2.0,1.2,1.6*3B
$GPGSV,3,1,10,17,69,177,30,28,59,031,44,30,54,112,42,13,52,271,41*77
$GPGSV,3,2,10,19,43,197,27,15,24,305,31,11,22,055,38,01,21,072,38*7D
$GPGSV,3,3,10,07,19,122,44,06,00,172,*74
$GPRMC,165154.997704,A,3725.0669,N,12203.3819,W,1.144,082.1,070717,,,A*4C
$GPVTG,082.1,T,,M,1.144,N,2.119,K,A*0D
$GPZDA,165154.997704,07,07,2017,00,00*64
$GPGGA,165155.997704,3725.0673,N,12203.3815,W,1,08,1.2,26.8,M,-32.0,M,,0000*6E
$GPGLL,3725.0673,N,12203.3815,W,165155.997704,A,A*70
$GPGSA,A,3,01,13,28,07,11,17,15,30,,,,,2.0,1.2,1.6*3B
$GPRMC,165155.997704,A,3725.0673,N,12203.3815,W,0.000,082.1,070717,,,A*4A
$GPVTG,082.1,T,,M,0.000,N,0.000,K,A*06
$GPZDA,165155.997704,07,07,2017,00,00*65
$GPGGA,165156.997704,3725.0680,N,12203.3778,W,1,09,1.0,28.5,M,-32.0,M,,0000*65
$GPGLL,3725.0680,N,12203.3778,W,165156.997704,A,A*7B
$GPGSA,A,3,01,13,28,07,19,11,17,15,30,,,,1.9,1.0,1.6*3B
$GPRMC,165156.997704,A,3725.0680,N,12203.3778,W,0.000,082.1,070717,,,A*41
$GPVTG,082.1,T,,M,0.000,N,0.000,K,A*06
$GPZDA,165156.997704,07,07,2017,00,00*66
$GPGGA,165157.997704,3725.0670,N,12203.3816,W,1,08,1.3,26.2,M,-32.0,M,,0000*67
$GPGLL,3725.0670,N,12203.3816,W,165157.997704,A,A*72
$GPGSA,A,3,01,13,28,07,19,11,17,30,,,,,2.5,1.3,2.1*37
$GPGSV,3,1,10,17,69,177,32,28,59,031,46,30,54,112,50,13,51,271,48*7E
$GPGSV,3,2,10,19,43,197,35,15,24,305,25,11,22,055,45,01,21,072,44*7A
$GPGSV,3,3,10,07,18,123,50,06,00,172,*71
$GPRMC,165157.997704,A,3725.0670,N,12203.3816,W,0.000,082.1,070717,,,A*48
$GPVTG,082.1,T,,M,0.000,N,0.000,K,A*06
$GPZDA,165157.997704,07,07,2017,00,00*67
$GPGGA,165158.997707,3725.0669,N,12203.3816,W,1,08,1.3,26.1,M,-32.0,M,,0000*60
$GPGLL,3725.0669,N,12203.3816,W,165158.997707,A,A*76
$GPGSA,A,3,01,13,28,07,19,11,17,30,,,,,2.5,1.3,2.1*37
$GPRMC,165158.997707,A,3725.0669,N,12203.3816,W,0.000,082.1,070717,,,A*4C
$GPVTG,082.1,T,,M,0.000,N,0.000,K,A*06
$GPZDA,165158.997707,07,07,2017,00,00*6B
$GPGGA,165159.997707,3725.0668,N,12203.3816,W,1,08,1.3,25.8,M,-32.0,M,,0000*6A
$GPGLL,3725.0668,N,12203.3816,W,165159.997707,A,A*76
$GPGSA,A,3,01,13,28,07,19,11,17,30,,,,,2.5,1.3,2.1*37
$GPRMC,165159.997707,A,3725.0668,N,12203.3816,W,0.000,082.1,070717,,,A*4C
$GPVTG,082.1,T,,M,0.000,N,0.000,K,A*06
$GPZDA,165159.997707,07,07,2017,00,00*6A
$GPGGA,165200.997708,3725.0668,N,12203.3816,W,1,07,1.4,25.4,M,-32.0,M,,0000*6E
$GPGLL,3725.0668,N,12203.3816,W,165200.997708,A,A*76
$GPGSA,A,3,01,13,28,07,19,11,30,,,,,,2.8,1.4,2.4*3E
$GPGSV,3,1,10,17,69,176,33,28,59,031,45,30,54,112,50,13,51,271,48*7D
$GPGSV,3,2,10,19,43,197,39,15,24,304,,11,22,055,45,01,21,072,44*70
$GPGSV,3,3,10,07,18,123,50,06,00,172,*71
$GPRMC,165200.997708,A,3725.0668,N,12203.3816,W,0.000,082.1,070717,,,A*4C
$GPVTG,082.1,T,,M,0.000,N,0.000,K,A*06
$GPZDA,165200.997708,07,07,2017,00,00*6A
$GPGGA,165201.997709,3725.0669,N,12203.3816,W,1,07,1.4,25.0,M,-32.0,M,,0000*6B
$GPGLL,3725.0669,N,12203.3816,W,165201.997709,A,A*77
$GPGSA,A,3,01,13,28,07,19,11,30,,,,,,2.8,1.4,2.4*3E
$GPRMC,165201.997709,A,3725.0669,N,12203.3816,W,0.000,082.1,070717,,,A*4D
$GPVTG,082.1,T,,M,0.000,N,0.000,K,A*06
$GPZDA,165201.997709,07,07,2017,00,00*6A
$GPGGA,165202.997710,3725.0669,N,12203.3817,W,1,08,1.3,24.6,M,-32.0,M,,0000*6E
$GPGLL,3725.0669,N,12203.3817,W,165202.997710,A,A*7D
$GPGSA,A,3,01,13,28,07,19,11,17,30,,,,,2.5,1.3,2.1*37
$GPRMC,165202.997710,A,3725.0669,N,12203.3817,W,0.000,082.1,070717,,,A*47
$GPVTG,082.1,T,,M,0.000,N,0.000,K,A*06
$GPZDA,165202.997710,07,07,2017,00,00*61
$GPGGA,165203.997711,3725.0669,N,12203.3818,W,1,08,1.3,24.2,M,-32.0,M,,0000*65
$GPGLL,3725.0669,N,12203.3818,W,165203.997711,A,A*72
$GPGSA,A,3,01,13,28,07,19,11,17,30,,,,,2.5,1.3,2.1*37
$GPGSV,3,1,10,17,69,176,33,28,59,031,45,30,54,112,50,13,51,271,48*7D
$GPGSV,3,2,10,19,43,197,40,15,24,304,26,11,22,055,44,01,21,072,43*7C
$GPGSV,3,3,10,07,18,123,50,06,00,172,*71
$GPRMC,165203.997711,A,3725.0669,N,12203.3818,W,0.000,082.1,070717,,,A*48
$GPVTG,082.1,T,,M,0.000,N,0.000,K,A*06
$GPZDA,165203.997711,07,07,2017,00,00*61
$GPGGA,165204.997712,3725.0670,N,12203.3818,W,1,08,1.3,23.8,M,-32.0,M,,0000*64
$GPGLL,3725.0670,N,12203.3818,W,165204.997712,A,A*7E
$GPGSA,A,3,01,13,28,07,19,11,17,30,,,,,2.5,1.3,2.1*37
$GPRMC,165204.997712,A,3725.0670,N,12203.3818,W,0.000,082.1,070717,,,A*44
$GPVTG,082.1,T,,M,0.000,N,0.000,K,A*06
$GPZDA,165204.997712,07,07,2017,00,00*65
$GPGGA,165205.997713,3725.0670,N,12203.3818,W,1,08,1.3,23.8,M,-32.0,M,,0000*64
$GPGLL,3725.0670,N,12203.3818,W,165205.997713,A,A*7E
$GPGSA,A,3,01,13,28,07,19,11,17,30,,,,,2.5,1.3,2.1*37
$GPRMC,165205.997713,A,3725.0670,N,12203.3818,W,0.000,082.1,070717,,,A*44
$GPVTG,082.1,T,,M,0.000,N,0.000,K,A*06
$GPZDA,165205.997713,07,07,2017,00,00*65
$GPGGA,165206.997714,3725.0670,N,12203.3818,W,1,08,1.3,23.8,M,-32.0,M,,0000*60
$GPGLL,3725.0670,N,12203.3818,W,165206.997714,A,A*7A
$GPGSA,A,3,01,13,28,07,19,11,17,30,,,,,2.5,1.3,2.1*37
$GPGSV,3,1,10,17,69,176,35,28,59,031,45,30,54,112,50,13,51,271,48*7B
$GPGSV,3,2,10,19,43,197,40,15,24,304,,11,22,055,44,01,21,072,45*7E
$GPGSV,3,3,10,07,18,123,50,06,00,172,*71
$GPRMC,165206.997714,A,3725.0670,N,12203.3818,W,0.000,082.1,070717,,,A*40
$GPVTG,082.1,T,,M,0.000,N,0.000,K,A*06
$GPZDA,165206.997714,07,07,2017,00,00*61
$GPGGA,165207.997716,3725.0670,N,12203.3818,W,1,08,1.3,23.8,M,-32.0,M,,0000*63
$GPGLL,3725.0670,N,12203.3818,W,165207.997716,A,A*79
$GPGSA,A,3,01,13,28,07,19,11,17,30,,,,,2.5,1.3,2.1*37
$GPRMC,165207.997716,A,3725.0670,N,12203.3818,W,0.000,082.1,070717,,,A*43
$GPVTG,082.1,T,,M,0.000,N,0.000,K,A*06
$GPZDA,165207.997716,07,07,2017,00,00*62
$GPGGA,165208.997717,3725.0670,N,12203.3818,W,1,08,1.3,23.8,M,-32.0,M,,0000*6D
$GPGLL,3725.0670,N,12203.3818,W,165208.997717,A,A*77
$GPGSA,A,3,01,13,28,07,19,11,17,30,,,,,2.5,1.3,2.1*37
$GPRMC,165208.997717,A,3725.0670,N,12203.3818,W,0.000,082.1,070717,,,A*4D
$GPVTG,082.1,T,,M,0.000,N,0.000,K,A*06
$GPZDA,165208.997717,07,07,2017,00,00*6C
$GPGGA,165209.997718,3725.0670,N,12203.3818,W,1,08,1.3,23.8,M,-32.0,M,,0000*63
$GPGLL,3725.0670,N,12203.3818,W,165209.997718,A,A*79
$GPGSA,A,3,01,13,28,07,19,11,17,30,,,,,2.5,1.3,2.1*37
$GPGSV,3,1,10,17,69,176,34,28,59,031,46,30,54,112,51,13,51,271,48*78
$GPGSV,3,2,10,19,43,197,40,15,24,304,24,11,22,055,44,01,21,072,45*78
$GPGSV,3,3,10,07,18,123,51,06,00,172,*70
$GPRMC,165209.997718,A,3725.0670,N,12203.3818,W,0.000,082.1,070717,,,A*43
$GPVTG,082.1,T,,M,0.000,N,0.000,K,A*06
$GPZDA,165209.997718,07,07,2017,00,00*62
$GPGGA,165210.997719,3725.0670,N,12203.3818,W,1,08,1.3,23.8,M,-32.0,M,,0000*6A
$GPGLL,3725.0670,N,12203.3818,W,165210.997719,A,A*70
$GPGSA,A,3,01,13,28,07,19,11,17,30,,,,,2.5,1.3,2.1*37
$GPRMC,165210.997719,A,3725.0670,N,12203.3818,W,0.000,082.1,070717,,,A*4A
$GPVTG,082.1,T,,M,0.000,N,0.000,K,A*06
$GPZDA,165210.997719,07,07,2017,00,00*6B
$GPGGA,165211.997720,3725.0670,N,12203.3818,W,1,08,1.3,23.8,M,-32.0,M,,0000*61
$GPGLL,3725.0670,N,12203.3818,W,165211.997720,A,A*7B
$GPGSA,A,3,01,13,28,07,19,11,17,30,,,,,2.5,1.3,2.1*37
$GPRMC,165211.997720,A,3725.0670,N,12203.3818,W,0.000,082.1,070717,,,A*41
$GPVTG,082.1,T,,M,0.000,N,0.000,K,A*06
$GPZDA,165211.997720,07,07,2017,00,00*60
$GPGGA,165212.997721,3725.0670,N,12203.3818,W,1,08,1.3,23.8,M,-32.0,M,,0000*63
$GPGLL,3725.0670,N,12203.3818,W,165212.997721,A,A*79
$GPGSA,A,3,01,13,28,07,19,11,17,30,,,,,2.5,1.3,2.1*37
